header:
  stamp:
    sec: 2899
    nanosec: 321000000
  frame_id: camera
poses:
- position:
    x: -0.5749657352815697
    y: 1.4001161646148526
    z: 4.515877243458143
  orientation:
    x: 0.6933828925631412
    y: -0.5994656264632737
    z: 0.37388241191778737
    w: 0.14167945880862304
- position:
    x: -1.4589288895043775
    y: 1.1364072245340682
    z: 5.483803610746916
  orientation:
    x: -0.7798036965700745
    y: 0.613056267716329
    z: -0.0362145020501833
    w: 0.12147722943263438
- position:
    x: 0.40305412712856575
    y: 0.8344753068400463
    z: 5.046311273390653
  orientation:
    x: 0.6688652797335823
    y: -0.61548977863158
    z: 0.361066167370402
    w: 0.20838136372385704
- position:
    x: -1.1920125123105543
    y: 0.4021453724432484
    z: 6.11898123169445
  orientation:
    x: -0.7556370228883124
    y: 0.5839293850703424
    z: 0.13073720342211675
    w: 0.266358680228793
- position:
    x: -2.1781833459417554
    y: -0.054821639341287726
    z: 6.9808402785130514
  orientation:
    x: 0.7127906666946895
    y: -0.6231826560997993
    z: 0.2557016621945282
    w: 0.19542134622475224
- position:
    x: 0.18987700297935797
    y: -0.20086522225781808
    z: 6.815064069880473
  orientation:
    x: 0.6563659495601446
    y: -0.6507479876322724
    z: 0.319119515504404
    w: 0.20946009566213908
- position:
    x: -2.8656773500656554
    y: -1.0976705611215225
    z: 8.211417946196395
  orientation:
    x: 0.6829160031023686
    y: -0.6427855035337651
    z: 0.274358558284271
    w: 0.21255566482619492
---
header:
  stamp:
    sec: 2899
    nanosec: 353000000
  frame_id: camera
poses:
- position:
    x: -0.5749657352815697
    y: 1.4001161646148526
    z: 4.515877243458143
  orientation:
    x: 0.6933828925631412
    y: -0.5994656264632737
    z: 0.37388241191778737
    w: 0.14167945880862304
- position:
    x: -1.4589288895043775
    y: 1.1364072245340682
    z: 5.483803610746916
  orientation:
    x: -0.7798036965700745
    y: 0.613056267716329
    z: -0.0362145020501833
    w: 0.12147722943263438
- position:
    x: 0.40305412712856575
    y: 0.8344753068400463
    z: 5.046311273390653
  orientation:
    x: 0.6688652797335823
    y: -0.61548977863158
    z: 0.361066167370402
    w: 0.20838136372385704
- position:
    x: -1.1920125123105543
    y: 0.4021453724432484
    z: 6.11898123169445
  orientation:
    x: -0.7556370228883124
    y: 0.5839293850703424
    z: 0.13073720342211675
    w: 0.266358680228793
- position:
    x: -2.1781833459417554
    y: -0.054821639341287726
    z: 6.9808402785130514
  orientation:
    x: 0.7127906666946895
    y: -0.6231826560997993
    z: 0.2557016621945282
    w: 0.19542134622475224
- position:
    x: 0.18987700297935797
    y: -0.20086522225781808
    z: 6.815064069880473
  orientation:
    x: 0.6563659495601446
    y: -0.6507479876322724
    z: 0.319119515504404
    w: 0.20946009566213908
- position:
    x: -2.8656773500656554
    y: -1.0976705611215225
    z: 8.211417946196395
  orientation:
    x: 0.6829160031023686
    y: -0.6427855035337651
    z: 0.274358558284271
    w: 0.21255566482619492
---
header:
  stamp:
    sec: 2899
    nanosec: 386000000
  frame_id: camera
poses:
- position:
    x: -0.5749657352815697
    y: 1.4001161646148526
    z: 4.515877243458143
  orientation:
    x: 0.6933828925631412
    y: -0.5994656264632737
    z: 0.37388241191778737
    w: 0.14167945880862304
- position:
    x: -1.4589288895043775
    y: 1.1364072245340682
    z: 5.483803610746916
  orientation:
    x: -0.7798036965700745
    y: 0.613056267716329
    z: -0.0362145020501833
    w: 0.12147722943263438
- position:
    x: 0.40305412712856575
    y: 0.8344753068400463
    z: 5.046311273390653
  orientation:
    x: 0.6688652797335823
    y: -0.61548977863158
    z: 0.361066167370402
    w: 0.20838136372385704
- position:
    x: -1.1920125123105543
    y: 0.4021453724432484
    z: 6.11898123169445
  orientation:
    x: -0.7556370228883124
    y: 0.5839293850703424
    z: 0.13073720342211675
    w: 0.266358680228793
- position:
    x: -2.1781833459417554
    y: -0.054821639341287726
    z: 6.9808402785130514
  orientation:
    x: 0.7127906666946895
    y: -0.6231826560997993
    z: 0.2557016621945282
    w: 0.19542134622475224
- position:
    x: 0.18987700297935797
    y: -0.20086522225781808
    z: 6.815064069880473
  orientation:
    x: 0.6563659495601446
    y: -0.6507479876322724
    z: 0.319119515504404
    w: 0.20946009566213908
- position:
    x: -2.8656773500656554
    y: -1.0976705611215225
    z: 8.211417946196395
  orientation:
    x: 0.6829160031023686
    y: -0.6427855035337651
    z: 0.274358558284271
    w: 0.21255566482619492
---
header:
  stamp:
    sec: 2899
    nanosec: 419000000
  frame_id: camera
poses:
- position:
    x: -0.5749657352815697
    y: 1.4001161646148526
    z: 4.515877243458143
  orientation:
    x: 0.6933828925631412
    y: -0.5994656264632737
    z: 0.37388241191778737
    w: 0.14167945880862304
- position:
    x: -1.4589288895043775
    y: 1.1364072245340682
    z: 5.483803610746916
  orientation:
    x: -0.7798036965700745
    y: 0.613056267716329
    z: -0.0362145020501833
    w: 0.12147722943263438
- position:
    x: 0.40305412712856575
    y: 0.8344753068400463
    z: 5.046311273390653
  orientation:
    x: 0.6688652797335823
    y: -0.61548977863158
    z: 0.361066167370402
    w: 0.20838136372385704
- position:
    x: -1.1920125123105543
    y: 0.4021453724432484
    z: 6.11898123169445
  orientation:
    x: -0.7556370228883124
    y: 0.5839293850703424
    z: 0.13073720342211675
    w: 0.266358680228793
- position:
    x: -2.1781833459417554
    y: -0.054821639341287726
    z: 6.9808402785130514
  orientation:
    x: 0.7127906666946895
    y: -0.6231826560997993
    z: 0.2557016621945282
    w: 0.19542134622475224
- position:
    x: 0.18987700297935797
    y: -0.20086522225781808
    z: 6.815064069880473
  orientation:
    x: 0.6563659495601446
    y: -0.6507479876322724
    z: 0.319119515504404
    w: 0.20946009566213908
- position:
    x: -2.8656773500656554
    y: -1.0976705611215225
    z: 8.211417946196395
  orientation:
    x: 0.6829160031023686
    y: -0.6427855035337651
    z: 0.274358558284271
    w: 0.21255566482619492
---
header:
  stamp:
    sec: 2899
    nanosec: 453000000
  frame_id: camera
poses:
- position:
    x: -0.5749657352815697
    y: 1.4001161646148526
    z: 4.515877243458143
  orientation:
    x: 0.6933828925631412
    y: -0.5994656264632737
    z: 0.37388241191778737
    w: 0.14167945880862304
- position:
    x: -1.4589288895043775
    y: 1.1364072245340682
    z: 5.483803610746916
  orientation:
    x: -0.7798036965700745
    y: 0.613056267716329
    z: -0.0362145020501833
    w: 0.12147722943263438
- position:
    x: 0.40305412712856575
    y: 0.8344753068400463
    z: 5.046311273390653
  orientation:
    x: 0.6688652797335823
    y: -0.61548977863158
    z: 0.361066167370402
    w: 0.20838136372385704
- position:
    x: -1.1920125123105543
    y: 0.4021453724432484
    z: 6.11898123169445
  orientation:
    x: -0.7556370228883124
    y: 0.5839293850703424
    z: 0.13073720342211675
    w: 0.266358680228793
- position:
    x: -2.1781833459417554
    y: -0.054821639341287726
    z: 6.9808402785130514
  orientation:
    x: 0.7127906666946895
    y: -0.6231826560997993
    z: 0.2557016621945282
    w: 0.19542134622475224
- position:
    x: 0.18987700297935797
    y: -0.20086522225781808
    z: 6.815064069880473
  orientation:
    x: 0.6563659495601446
    y: -0.6507479876322724
    z: 0.319119515504404
    w: 0.20946009566213908
- position:
    x: -2.8656773500656554
    y: -1.0976705611215225
    z: 8.211417946196395
  orientation:
    x: 0.6829160031023686
    y: -0.6427855035337651
    z: 0.274358558284271
    w: 0.21255566482619492
---
header:
  stamp:
    sec: 2899
    nanosec: 485000000
  frame_id: camera
poses:
- position:
    x: -0.5749657352815697
    y: 1.4001161646148526
    z: 4.515877243458143
  orientation:
    x: 0.6933828925631412
    y: -0.5994656264632737
    z: 0.37388241191778737
    w: 0.14167945880862304
- position:
    x: -1.4589288895043775
    y: 1.1364072245340682
    z: 5.483803610746916
  orientation:
    x: -0.7798036965700745
    y: 0.613056267716329
    z: -0.0362145020501833
    w: 0.12147722943263438
- position:
    x: 0.40305412712856575
    y: 0.8344753068400463
    z: 5.046311273390653
  orientation:
    x: 0.6688652797335823
    y: -0.61548977863158
    z: 0.361066167370402
    w: 0.20838136372385704
- position:
    x: -1.1920125123105543
    y: 0.4021453724432484
    z: 6.11898123169445
  orientation:
    x: -0.7556370228883124
    y: 0.5839293850703424
    z: 0.13073720342211675
    w: 0.266358680228793
- position:
    x: -2.1781833459417554
    y: -0.054821639341287726
    z: 6.9808402785130514
  orientation:
    x: 0.7127906666946895
    y: -0.6231826560997993
    z: 0.2557016621945282
    w: 0.19542134622475224
- position:
    x: 0.18987700297935797
    y: -0.20086522225781808
    z: 6.815064069880473
  orientation:
    x: 0.6563659495601446
    y: -0.6507479876322724
    z: 0.319119515504404
    w: 0.20946009566213908
- position:
    x: -2.8656773500656554
    y: -1.0976705611215225
    z: 8.211417946196395
  orientation:
    x: 0.6829160031023686
    y: -0.6427855035337651
    z: 0.274358558284271
    w: 0.21255566482619492
---
header:
  stamp:
    sec: 2899
    nanosec: 523000000
  frame_id: camera
poses:
- position:
    x: -0.5749657352815697
    y: 1.4001161646148526
    z: 4.515877243458143
  orientation:
    x: 0.6933828925631412
    y: -0.5994656264632737
    z: 0.37388241191778737
    w: 0.14167945880862304
- position:
    x: -1.4589288895043775
    y: 1.1364072245340682
    z: 5.483803610746916
  orientation:
    x: -0.7798036965700745
    y: 0.613056267716329
    z: -0.0362145020501833
    w: 0.12147722943263438
- position:
    x: 0.40305412712856575
    y: 0.8344753068400463
    z: 5.046311273390653
  orientation:
    x: 0.6688652797335823
    y: -0.61548977863158
    z: 0.361066167370402
    w: 0.20838136372385704
- position:
    x: -1.1920125123105543
    y: 0.4021453724432484
    z: 6.11898123169445
  orientation:
    x: -0.7556370228883124
    y: 0.5839293850703424
    z: 0.13073720342211675
    w: 0.266358680228793
- position:
    x: -2.1781833459417554
    y: -0.054821639341287726
    z: 6.9808402785130514
  orientation:
    x: 0.7127906666946895
    y: -0.6231826560997993
    z: 0.2557016621945282
    w: 0.19542134622475224
- position:
    x: 0.18987700297935797
    y: -0.20086522225781808
    z: 6.815064069880473
  orientation:
    x: 0.6563659495601446
    y: -0.6507479876322724
    z: 0.319119515504404
    w: 0.20946009566213908
- position:
    x: -2.8656773500656554
    y: -1.0976705611215225
    z: 8.211417946196395
  orientation:
    x: 0.6829160031023686
    y: -0.6427855035337651
    z: 0.274358558284271
    w: 0.21255566482619492
---
header:
  stamp:
    sec: 2899
    nanosec: 552000000
  frame_id: camera
poses:
- position:
    x: -0.5749657352815697
    y: 1.4001161646148526
    z: 4.515877243458143
  orientation:
    x: 0.6933828925631412
    y: -0.5994656264632737
    z: 0.37388241191778737
    w: 0.14167945880862304
- position:
    x: -1.4589288895043775
    y: 1.1364072245340682
    z: 5.483803610746916
  orientation:
    x: -0.7798036965700745
    y: 0.613056267716329
    z: -0.0362145020501833
    w: 0.12147722943263438
- position:
    x: 0.40305412712856575
    y: 0.8344753068400463
    z: 5.046311273390653
  orientation:
    x: 0.6688652797335823
    y: -0.61548977863158
    z: 0.361066167370402
    w: 0.20838136372385704
- position:
    x: -1.1920125123105543
    y: 0.4021453724432484
    z: 6.11898123169445
  orientation:
    x: -0.7556370228883124
    y: 0.5839293850703424
    z: 0.13073720342211675
    w: 0.266358680228793
- position:
    x: -2.1781833459417554
    y: -0.054821639341287726
    z: 6.9808402785130514
  orientation:
    x: 0.7127906666946895
    y: -0.6231826560997993
    z: 0.2557016621945282
    w: 0.19542134622475224
- position:
    x: 0.18987700297935797
    y: -0.20086522225781808
    z: 6.815064069880473
  orientation:
    x: 0.6563659495601446
    y: -0.6507479876322724
    z: 0.319119515504404
    w: 0.20946009566213908
- position:
    x: -2.8656773500656554
    y: -1.0976705611215225
    z: 8.211417946196395
  orientation:
    x: 0.6829160031023686
    y: -0.6427855035337651
    z: 0.274358558284271
    w: 0.21255566482619492
---
header:
  stamp:
    sec: 2899
    nanosec: 585000000
  frame_id: camera
poses:
- position:
    x: -0.5749657352815697
    y: 1.4001161646148526
    z: 4.515877243458143
  orientation:
    x: 0.6933828925631412
    y: -0.5994656264632737
    z: 0.37388241191778737
    w: 0.14167945880862304
- position:
    x: -1.4589288895043775
    y: 1.1364072245340682
    z: 5.483803610746916
  orientation:
    x: -0.7798036965700745
    y: 0.613056267716329
    z: -0.0362145020501833
    w: 0.12147722943263438
- position:
    x: 0.40305412712856575
    y: 0.8344753068400463
    z: 5.046311273390653
  orientation:
    x: 0.6688652797335823
    y: -0.61548977863158
    z: 0.361066167370402
    w: 0.20838136372385704
- position:
    x: -1.1920125123105543
    y: 0.4021453724432484
    z: 6.11898123169445
  orientation:
    x: -0.7556370228883124
    y: 0.5839293850703424
    z: 0.13073720342211675
    w: 0.266358680228793
- position:
    x: -2.1781833459417554
    y: -0.054821639341287726
    z: 6.9808402785130514
  orientation:
    x: 0.7127906666946895
    y: -0.6231826560997993
    z: 0.2557016621945282
    w: 0.19542134622475224
- position:
    x: 0.18987700297935797
    y: -0.20086522225781808
    z: 6.815064069880473
  orientation:
    x: 0.6563659495601446
    y: -0.6507479876322724
    z: 0.319119515504404
    w: 0.20946009566213908
- position:
    x: -2.8656773500656554
    y: -1.0976705611215225
    z: 8.211417946196395
  orientation:
    x: 0.6829160031023686
    y: -0.6427855035337651
    z: 0.274358558284271
    w: 0.21255566482619492
---
header:
  stamp:
    sec: 2899
    nanosec: 618000000
  frame_id: camera
poses:
- position:
    x: -0.5749657352815697
    y: 1.4001161646148526
    z: 4.515877243458143
  orientation:
    x: 0.6933828925631412
    y: -0.5994656264632737
    z: 0.37388241191778737
    w: 0.14167945880862304
- position:
    x: -1.4589288895043775
    y: 1.1364072245340682
    z: 5.483803610746916
  orientation:
    x: -0.7798036965700745
    y: 0.613056267716329
    z: -0.0362145020501833
    w: 0.12147722943263438
- position:
    x: 0.40305412712856575
    y: 0.8344753068400463
    z: 5.046311273390653
  orientation:
    x: 0.6688652797335823
    y: -0.61548977863158
    z: 0.361066167370402
    w: 0.20838136372385704
- position:
    x: -1.1920125123105543
    y: 0.4021453724432484
    z: 6.11898123169445
  orientation:
    x: -0.7556370228883124
    y: 0.5839293850703424
    z: 0.13073720342211675
    w: 0.266358680228793
- position:
    x: -2.1781833459417554
    y: -0.054821639341287726
    z: 6.9808402785130514
  orientation:
    x: 0.7127906666946895
    y: -0.6231826560997993
    z: 0.2557016621945282
    w: 0.19542134622475224
- position:
    x: 0.18987700297935797
    y: -0.20086522225781808
    z: 6.815064069880473
  orientation:
    x: 0.6563659495601446
    y: -0.6507479876322724
    z: 0.319119515504404
    w: 0.20946009566213908
- position:
    x: -2.8656773500656554
    y: -1.0976705611215225
    z: 8.211417946196395
  orientation:
    x: 0.6829160031023686
    y: -0.6427855035337651
    z: 0.274358558284271
    w: 0.21255566482619492
---
header:
  stamp:
    sec: 2899
    nanosec: 650000000
  frame_id: camera
poses:
- position:
    x: -0.5749657352815697
    y: 1.4001161646148526
    z: 4.515877243458143
  orientation:
    x: 0.6933828925631412
    y: -0.5994656264632737
    z: 0.37388241191778737
    w: 0.14167945880862304
- position:
    x: -1.4589288895043775
    y: 1.1364072245340682
    z: 5.483803610746916
  orientation:
    x: -0.7798036965700745
    y: 0.613056267716329
    z: -0.0362145020501833
    w: 0.12147722943263438
- position:
    x: 0.40305412712856575
    y: 0.8344753068400463
    z: 5.046311273390653
  orientation:
    x: 0.6688652797335823
    y: -0.61548977863158
    z: 0.361066167370402
    w: 0.20838136372385704
- position:
    x: -1.1920125123105543
    y: 0.4021453724432484
    z: 6.11898123169445
  orientation:
    x: -0.7556370228883124
    y: 0.5839293850703424
    z: 0.13073720342211675
    w: 0.266358680228793
- position:
    x: -2.1781833459417554
    y: -0.054821639341287726
    z: 6.9808402785130514
  orientation:
    x: 0.7127906666946895
    y: -0.6231826560997993
    z: 0.2557016621945282
    w: 0.19542134622475224
- position:
    x: 0.18987700297935797
    y: -0.20086522225781808
    z: 6.815064069880473
  orientation:
    x: 0.6563659495601446
    y: -0.6507479876322724
    z: 0.319119515504404
    w: 0.20946009566213908
- position:
    x: -2.8656773500656554
    y: -1.0976705611215225
    z: 8.211417946196395
  orientation:
    x: 0.6829160031023686
    y: -0.6427855035337651
    z: 0.274358558284271
    w: 0.21255566482619492
---
header:
  stamp:
    sec: 2899
    nanosec: 683000000
  frame_id: camera
poses:
- position:
    x: -0.5749657352815697
    y: 1.4001161646148526
    z: 4.515877243458143
  orientation:
    x: 0.6933828925631412
    y: -0.5994656264632737
    z: 0.37388241191778737
    w: 0.14167945880862304
- position:
    x: -1.4589288895043775
    y: 1.1364072245340682
    z: 5.483803610746916
  orientation:
    x: -0.7798036965700745
    y: 0.613056267716329
    z: -0.0362145020501833
    w: 0.12147722943263438
- position:
    x: 0.40305412712856575
    y: 0.8344753068400463
    z: 5.046311273390653
  orientation:
    x: 0.6688652797335823
    y: -0.61548977863158
    z: 0.361066167370402
    w: 0.20838136372385704
- position:
    x: -1.1920125123105543
    y: 0.4021453724432484
    z: 6.11898123169445
  orientation:
    x: -0.7556370228883124
    y: 0.5839293850703424
    z: 0.13073720342211675
    w: 0.266358680228793
- position:
    x: -2.1781833459417554
    y: -0.054821639341287726
    z: 6.9808402785130514
  orientation:
    x: 0.7127906666946895
    y: -0.6231826560997993
    z: 0.2557016621945282
    w: 0.19542134622475224
- position:
    x: 0.18987700297935797
    y: -0.20086522225781808
    z: 6.815064069880473
  orientation:
    x: 0.6563659495601446
    y: -0.6507479876322724
    z: 0.319119515504404
    w: 0.20946009566213908
- position:
    x: -2.8656773500656554
    y: -1.0976705611215225
    z: 8.211417946196395
  orientation:
    x: 0.6829160031023686
    y: -0.6427855035337651
    z: 0.274358558284271
    w: 0.21255566482619492
---
header:
  stamp:
    sec: 2899
    nanosec: 716000000
  frame_id: camera
poses:
- position:
    x: -0.5749657352815697
    y: 1.4001161646148526
    z: 4.515877243458143
  orientation:
    x: 0.6933828925631412
    y: -0.5994656264632737
    z: 0.37388241191778737
    w: 0.14167945880862304
- position:
    x: -1.4589288895043775
    y: 1.1364072245340682
    z: 5.483803610746916
  orientation:
    x: -0.7798036965700745
    y: 0.613056267716329
    z: -0.0362145020501833
    w: 0.12147722943263438
- position:
    x: 0.40305412712856575
    y: 0.8344753068400463
    z: 5.046311273390653
  orientation:
    x: 0.6688652797335823
    y: -0.61548977863158
    z: 0.361066167370402
    w: 0.20838136372385704
- position:
    x: -1.1920125123105543
    y: 0.4021453724432484
    z: 6.11898123169445
  orientation:
    x: -0.7556370228883124
    y: 0.5839293850703424
    z: 0.13073720342211675
    w: 0.266358680228793
- position:
    x: -2.1781833459417554
    y: -0.054821639341287726
    z: 6.9808402785130514
  orientation:
    x: 0.7127906666946895
    y: -0.6231826560997993
    z: 0.2557016621945282
    w: 0.19542134622475224
- position:
    x: 0.18987700297935797
    y: -0.20086522225781808
    z: 6.815064069880473
  orientation:
    x: 0.6563659495601446
    y: -0.6507479876322724
    z: 0.319119515504404
    w: 0.20946009566213908
- position:
    x: -2.8656773500656554
    y: -1.0976705611215225
    z: 8.211417946196395
  orientation:
    x: 0.6829160031023686
    y: -0.6427855035337651
    z: 0.274358558284271
    w: 0.21255566482619492
---
header:
  stamp:
    sec: 2899
    nanosec: 749000000
  frame_id: camera
poses:
- position:
    x: -0.5749657352815697
    y: 1.4001161646148526
    z: 4.515877243458143
  orientation:
    x: 0.6933828925631412
    y: -0.5994656264632737
    z: 0.37388241191778737
    w: 0.14167945880862304
- position:
    x: -1.4589288895043775
    y: 1.1364072245340682
    z: 5.483803610746916
  orientation:
    x: -0.7798036965700745
    y: 0.613056267716329
    z: -0.0362145020501833
    w: 0.12147722943263438
- position:
    x: 0.40305412712856575
    y: 0.8344753068400463
    z: 5.046311273390653
  orientation:
    x: 0.6688652797335823
    y: -0.61548977863158
    z: 0.361066167370402
    w: 0.20838136372385704
- position:
    x: -1.1920125123105543
    y: 0.4021453724432484
    z: 6.11898123169445
  orientation:
    x: -0.7556370228883124
    y: 0.5839293850703424
    z: 0.13073720342211675
    w: 0.266358680228793
- position:
    x: -2.1781833459417554
    y: -0.054821639341287726
    z: 6.9808402785130514
  orientation:
    x: 0.7127906666946895
    y: -0.6231826560997993
    z: 0.2557016621945282
    w: 0.19542134622475224
- position:
    x: 0.18987700297935797
    y: -0.20086522225781808
    z: 6.815064069880473
  orientation:
    x: 0.6563659495601446
    y: -0.6507479876322724
    z: 0.319119515504404
    w: 0.20946009566213908
- position:
    x: -2.8656773500656554
    y: -1.0976705611215225
    z: 8.211417946196395
  orientation:
    x: 0.6829160031023686
    y: -0.6427855035337651
    z: 0.274358558284271
    w: 0.21255566482619492
---
header:
  stamp:
    sec: 2899
    nanosec: 784000000
  frame_id: camera
poses:
- position:
    x: -0.5749657352815697
    y: 1.4001161646148526
    z: 4.515877243458143
  orientation:
    x: 0.6933828925631412
    y: -0.5994656264632737
    z: 0.37388241191778737
    w: 0.14167945880862304
- position:
    x: -1.4589288895043775
    y: 1.1364072245340682
    z: 5.483803610746916
  orientation:
    x: -0.7798036965700745
    y: 0.613056267716329
    z: -0.0362145020501833
    w: 0.12147722943263438
- position:
    x: 0.40305412712856575
    y: 0.8344753068400463
    z: 5.046311273390653
  orientation:
    x: 0.6688652797335823
    y: -0.61548977863158
    z: 0.361066167370402
    w: 0.20838136372385704
- position:
    x: -1.1920125123105543
    y: 0.4021453724432484
    z: 6.11898123169445
  orientation:
    x: -0.7556370228883124
    y: 0.5839293850703424
    z: 0.13073720342211675
    w: 0.266358680228793
- position:
    x: -2.1781833459417554
    y: -0.054821639341287726
    z: 6.9808402785130514
  orientation:
    x: 0.7127906666946895
    y: -0.6231826560997993
    z: 0.2557016621945282
    w: 0.19542134622475224
- position:
    x: 0.18987700297935797
    y: -0.20086522225781808
    z: 6.815064069880473
  orientation:
    x: 0.6563659495601446
    y: -0.6507479876322724
    z: 0.319119515504404
    w: 0.20946009566213908
- position:
    x: -2.8656773500656554
    y: -1.0976705611215225
    z: 8.211417946196395
  orientation:
    x: 0.6829160031023686
    y: -0.6427855035337651
    z: 0.274358558284271
    w: 0.21255566482619492
---
header:
  stamp:
    sec: 2899
    nanosec: 816000000
  frame_id: camera
poses:
- position:
    x: -0.5749657352815697
    y: 1.4001161646148526
    z: 4.515877243458143
  orientation:
    x: 0.6933828925631412
    y: -0.5994656264632737
    z: 0.37388241191778737
    w: 0.14167945880862304
- position:
    x: -1.4589288895043775
    y: 1.1364072245340682
    z: 5.483803610746916
  orientation:
    x: -0.7798036965700745
    y: 0.613056267716329
    z: -0.0362145020501833
    w: 0.12147722943263438
- position:
    x: 0.40305412712856575
    y: 0.8344753068400463
    z: 5.046311273390653
  orientation:
    x: 0.6688652797335823
    y: -0.61548977863158
    z: 0.361066167370402
    w: 0.20838136372385704
- position:
    x: -1.1920125123105543
    y: 0.4021453724432484
    z: 6.11898123169445
  orientation:
    x: -0.7556370228883124
    y: 0.5839293850703424
    z: 0.13073720342211675
    w: 0.266358680228793
- position:
    x: -2.1781833459417554
    y: -0.054821639341287726
    z: 6.9808402785130514
  orientation:
    x: 0.7127906666946895
    y: -0.6231826560997993
    z: 0.2557016621945282
    w: 0.19542134622475224
- position:
    x: 0.18987700297935797
    y: -0.20086522225781808
    z: 6.815064069880473
  orientation:
    x: 0.6563659495601446
    y: -0.6507479876322724
    z: 0.319119515504404
    w: 0.20946009566213908
- position:
    x: -2.8656773500656554
    y: -1.0976705611215225
    z: 8.211417946196395
  orientation:
    x: 0.6829160031023686
    y: -0.6427855035337651
    z: 0.274358558284271
    w: 0.21255566482619492
---
header:
  stamp:
    sec: 2899
    nanosec: 848000000
  frame_id: camera
poses:
- position:
    x: -0.5749657352815697
    y: 1.4001161646148526
    z: 4.515877243458143
  orientation:
    x: 0.6933828925631412
    y: -0.5994656264632737
    z: 0.37388241191778737
    w: 0.14167945880862304
- position:
    x: -1.4589288895043775
    y: 1.1364072245340682
    z: 5.483803610746916
  orientation:
    x: -0.7798036965700745
    y: 0.613056267716329
    z: -0.0362145020501833
    w: 0.12147722943263438
- position:
    x: 0.40305412712856575
    y: 0.8344753068400463
    z: 5.046311273390653
  orientation:
    x: 0.6688652797335823
    y: -0.61548977863158
    z: 0.361066167370402
    w: 0.20838136372385704
- position:
    x: -1.1920125123105543
    y: 0.4021453724432484
    z: 6.11898123169445
  orientation:
    x: -0.7556370228883124
    y: 0.5839293850703424
    z: 0.13073720342211675
    w: 0.266358680228793
- position:
    x: -2.1781833459417554
    y: -0.054821639341287726
    z: 6.9808402785130514
  orientation:
    x: 0.7127906666946895
    y: -0.6231826560997993
    z: 0.2557016621945282
    w: 0.19542134622475224
- position:
    x: 0.18987700297935797
    y: -0.20086522225781808
    z: 6.815064069880473
  orientation:
    x: 0.6563659495601446
    y: -0.6507479876322724
    z: 0.319119515504404
    w: 0.20946009566213908
- position:
    x: -2.8656773500656554
    y: -1.0976705611215225
    z: 8.211417946196395
  orientation:
    x: 0.6829160031023686
    y: -0.6427855035337651
    z: 0.274358558284271
    w: 0.21255566482619492
---
header:
  stamp:
    sec: 2899
    nanosec: 881000000
  frame_id: camera
poses:
- position:
    x: -0.5749657352815697
    y: 1.4001161646148526
    z: 4.515877243458143
  orientation:
    x: 0.6933828925631412
    y: -0.5994656264632737
    z: 0.37388241191778737
    w: 0.14167945880862304
- position:
    x: -1.4589288895043775
    y: 1.1364072245340682
    z: 5.483803610746916
  orientation:
    x: -0.7798036965700745
    y: 0.613056267716329
    z: -0.0362145020501833
    w: 0.12147722943263438
- position:
    x: 0.40305412712856575
    y: 0.8344753068400463
    z: 5.046311273390653
  orientation:
    x: 0.6688652797335823
    y: -0.61548977863158
    z: 0.361066167370402
    w: 0.20838136372385704
- position:
    x: -1.1920125123105543
    y: 0.4021453724432484
    z: 6.11898123169445
  orientation:
    x: -0.7556370228883124
    y: 0.5839293850703424
    z: 0.13073720342211675
    w: 0.266358680228793
- position:
    x: -2.1781833459417554
    y: -0.054821639341287726
    z: 6.9808402785130514
  orientation:
    x: 0.7127906666946895
    y: -0.6231826560997993
    z: 0.2557016621945282
    w: 0.19542134622475224
- position:
    x: 0.18987700297935797
    y: -0.20086522225781808
    z: 6.815064069880473
  orientation:
    x: 0.6563659495601446
    y: -0.6507479876322724
    z: 0.319119515504404
    w: 0.20946009566213908
- position:
    x: -2.8656773500656554
    y: -1.0976705611215225
    z: 8.211417946196395
  orientation:
    x: 0.6829160031023686
    y: -0.6427855035337651
    z: 0.274358558284271
    w: 0.21255566482619492
---
header:
  stamp:
    sec: 2899
    nanosec: 914000000
  frame_id: camera
poses:
- position:
    x: -0.5749657352815697
    y: 1.4001161646148526
    z: 4.515877243458143
  orientation:
    x: 0.6933828925631412
    y: -0.5994656264632737
    z: 0.37388241191778737
    w: 0.14167945880862304
- position:
    x: -1.4589288895043775
    y: 1.1364072245340682
    z: 5.483803610746916
  orientation:
    x: -0.7798036965700745
    y: 0.613056267716329
    z: -0.0362145020501833
    w: 0.12147722943263438
- position:
    x: 0.40305412712856575
    y: 0.8344753068400463
    z: 5.046311273390653
  orientation:
    x: 0.6688652797335823
    y: -0.61548977863158
    z: 0.361066167370402
    w: 0.20838136372385704
- position:
    x: -1.1920125123105543
    y: 0.4021453724432484
    z: 6.11898123169445
  orientation:
    x: -0.7556370228883124
    y: 0.5839293850703424
    z: 0.13073720342211675
    w: 0.266358680228793
- position:
    x: -2.1781833459417554
    y: -0.054821639341287726
    z: 6.9808402785130514
  orientation:
    x: 0.7127906666946895
    y: -0.6231826560997993
    z: 0.2557016621945282
    w: 0.19542134622475224
- position:
    x: 0.18987700297935797
    y: -0.20086522225781808
    z: 6.815064069880473
  orientation:
    x: 0.6563659495601446
    y: -0.6507479876322724
    z: 0.319119515504404
    w: 0.20946009566213908
- position:
    x: -2.8656773500656554
    y: -1.0976705611215225
    z: 8.211417946196395
  orientation:
    x: 0.6829160031023686
    y: -0.6427855035337651
    z: 0.274358558284271
    w: 0.21255566482619492
---
header:
  stamp:
    sec: 2899
    nanosec: 947000000
  frame_id: camera
poses:
- position:
    x: -0.5749657352815697
    y: 1.4001161646148526
    z: 4.515877243458143
  orientation:
    x: 0.6933828925631412
    y: -0.5994656264632737
    z: 0.37388241191778737
    w: 0.14167945880862304
- position:
    x: -1.4589288895043775
    y: 1.1364072245340682
    z: 5.483803610746916
  orientation:
    x: -0.7798036965700745
    y: 0.613056267716329
    z: -0.0362145020501833
    w: 0.12147722943263438
- position:
    x: 0.40305412712856575
    y: 0.8344753068400463
    z: 5.046311273390653
  orientation:
    x: 0.6688652797335823
    y: -0.61548977863158
    z: 0.361066167370402
    w: 0.20838136372385704
- position:
    x: -1.1920125123105543
    y: 0.4021453724432484
    z: 6.11898123169445
  orientation:
    x: -0.7556370228883124
    y: 0.5839293850703424
    z: 0.13073720342211675
    w: 0.266358680228793
- position:
    x: -2.1781833459417554
    y: -0.054821639341287726
    z: 6.9808402785130514
  orientation:
    x: 0.7127906666946895
    y: -0.6231826560997993
    z: 0.2557016621945282
    w: 0.19542134622475224
- position:
    x: 0.18987700297935797
    y: -0.20086522225781808
    z: 6.815064069880473
  orientation:
    x: 0.6563659495601446
    y: -0.6507479876322724
    z: 0.319119515504404
    w: 0.20946009566213908
- position:
    x: -2.8656773500656554
    y: -1.0976705611215225
    z: 8.211417946196395
  orientation:
    x: 0.6829160031023686
    y: -0.6427855035337651
    z: 0.274358558284271
    w: 0.21255566482619492
---
header:
  stamp:
    sec: 2899
    nanosec: 981000000
  frame_id: camera
poses:
- position:
    x: -0.5749657352815697
    y: 1.4001161646148526
    z: 4.515877243458143
  orientation:
    x: 0.6933828925631412
    y: -0.5994656264632737
    z: 0.37388241191778737
    w: 0.14167945880862304
- position:
    x: -1.4589288895043775
    y: 1.1364072245340682
    z: 5.483803610746916
  orientation:
    x: -0.7798036965700745
    y: 0.613056267716329
    z: -0.0362145020501833
    w: 0.12147722943263438
- position:
    x: 0.40305412712856575
    y: 0.8344753068400463
    z: 5.046311273390653
  orientation:
    x: 0.6688652797335823
    y: -0.61548977863158
    z: 0.361066167370402
    w: 0.20838136372385704
- position:
    x: -1.1920125123105543
    y: 0.4021453724432484
    z: 6.11898123169445
  orientation:
    x: -0.7556370228883124
    y: 0.5839293850703424
    z: 0.13073720342211675
    w: 0.266358680228793
- position:
    x: -2.1781833459417554
    y: -0.054821639341287726
    z: 6.9808402785130514
  orientation:
    x: 0.7127906666946895
    y: -0.6231826560997993
    z: 0.2557016621945282
    w: 0.19542134622475224
- position:
    x: 0.18987700297935797
    y: -0.20086522225781808
    z: 6.815064069880473
  orientation:
    x: 0.6563659495601446
    y: -0.6507479876322724
    z: 0.319119515504404
    w: 0.20946009566213908
- position:
    x: -2.8656773500656554
    y: -1.0976705611215225
    z: 8.211417946196395
  orientation:
    x: 0.6829160031023686
    y: -0.6427855035337651
    z: 0.274358558284271
    w: 0.21255566482619492
---
header:
  stamp:
    sec: 2900
    nanosec: 13000000
  frame_id: camera
poses:
- position:
    x: -0.5749657352815697
    y: 1.4001161646148526
    z: 4.515877243458143
  orientation:
    x: 0.6933828925631412
    y: -0.5994656264632737
    z: 0.37388241191778737
    w: 0.14167945880862304
- position:
    x: -1.4589288895043775
    y: 1.1364072245340682
    z: 5.483803610746916
  orientation:
    x: -0.7798036965700745
    y: 0.613056267716329
    z: -0.0362145020501833
    w: 0.12147722943263438
- position:
    x: 0.40305412712856575
    y: 0.8344753068400463
    z: 5.046311273390653
  orientation:
    x: 0.6688652797335823
    y: -0.61548977863158
    z: 0.361066167370402
    w: 0.20838136372385704
- position:
    x: -1.1920125123105543
    y: 0.4021453724432484
    z: 6.11898123169445
  orientation:
    x: -0.7556370228883124
    y: 0.5839293850703424
    z: 0.13073720342211675
    w: 0.266358680228793
- position:
    x: -2.1781833459417554
    y: -0.054821639341287726
    z: 6.9808402785130514
  orientation:
    x: 0.7127906666946895
    y: -0.6231826560997993
    z: 0.2557016621945282
    w: 0.19542134622475224
- position:
    x: 0.18987700297935797
    y: -0.20086522225781808
    z: 6.815064069880473
  orientation:
    x: 0.6563659495601446
    y: -0.6507479876322724
    z: 0.319119515504404
    w: 0.20946009566213908
- position:
    x: -2.8656773500656554
    y: -1.0976705611215225
    z: 8.211417946196395
  orientation:
    x: 0.6829160031023686
    y: -0.6427855035337651
    z: 0.274358558284271
    w: 0.21255566482619492
---
header:
  stamp:
    sec: 2900
    nanosec: 46000000
  frame_id: camera
poses:
- position:
    x: -0.5749657352815697
    y: 1.4001161646148526
    z: 4.515877243458143
  orientation:
    x: 0.6933828925631412
    y: -0.5994656264632737
    z: 0.37388241191778737
    w: 0.14167945880862304
- position:
    x: -1.4589288895043775
    y: 1.1364072245340682
    z: 5.483803610746916
  orientation:
    x: -0.7798036965700745
    y: 0.613056267716329
    z: -0.0362145020501833
    w: 0.12147722943263438
- position:
    x: 0.40305412712856575
    y: 0.8344753068400463
    z: 5.046311273390653
  orientation:
    x: 0.6688652797335823
    y: -0.61548977863158
    z: 0.361066167370402
    w: 0.20838136372385704
- position:
    x: -1.1920125123105543
    y: 0.4021453724432484
    z: 6.11898123169445
  orientation:
    x: -0.7556370228883124
    y: 0.5839293850703424
    z: 0.13073720342211675
    w: 0.266358680228793
- position:
    x: -2.1781833459417554
    y: -0.054821639341287726
    z: 6.9808402785130514
  orientation:
    x: 0.7127906666946895
    y: -0.6231826560997993
    z: 0.2557016621945282
    w: 0.19542134622475224
- position:
    x: 0.18987700297935797
    y: -0.20086522225781808
    z: 6.815064069880473
  orientation:
    x: 0.6563659495601446
    y: -0.6507479876322724
    z: 0.319119515504404
    w: 0.20946009566213908
- position:
    x: -2.8656773500656554
    y: -1.0976705611215225
    z: 8.211417946196395
  orientation:
    x: 0.6829160031023686
    y: -0.6427855035337651
    z: 0.274358558284271
    w: 0.21255566482619492
---
header:
  stamp:
    sec: 2900
    nanosec: 79000000
  frame_id: camera
poses:
- position:
    x: -0.5749657352815697
    y: 1.4001161646148526
    z: 4.515877243458143
  orientation:
    x: 0.6933828925631412
    y: -0.5994656264632737
    z: 0.37388241191778737
    w: 0.14167945880862304
- position:
    x: -1.4589288895043775
    y: 1.1364072245340682
    z: 5.483803610746916
  orientation:
    x: -0.7798036965700745
    y: 0.613056267716329
    z: -0.0362145020501833
    w: 0.12147722943263438
- position:
    x: 0.40305412712856575
    y: 0.8344753068400463
    z: 5.046311273390653
  orientation:
    x: 0.6688652797335823
    y: -0.61548977863158
    z: 0.361066167370402
    w: 0.20838136372385704
- position:
    x: -1.1920125123105543
    y: 0.4021453724432484
    z: 6.11898123169445
  orientation:
    x: -0.7556370228883124
    y: 0.5839293850703424
    z: 0.13073720342211675
    w: 0.266358680228793
- position:
    x: -2.1781833459417554
    y: -0.054821639341287726
    z: 6.9808402785130514
  orientation:
    x: 0.7127906666946895
    y: -0.6231826560997993
    z: 0.2557016621945282
    w: 0.19542134622475224
- position:
    x: 0.18987700297935797
    y: -0.20086522225781808
    z: 6.815064069880473
  orientation:
    x: 0.6563659495601446
    y: -0.6507479876322724
    z: 0.319119515504404
    w: 0.20946009566213908
- position:
    x: -2.8656773500656554
    y: -1.0976705611215225
    z: 8.211417946196395
  orientation:
    x: 0.6829160031023686
    y: -0.6427855035337651
    z: 0.274358558284271
    w: 0.21255566482619492
---
header:
  stamp:
    sec: 2900
    nanosec: 112000000
  frame_id: camera
poses:
- position:
    x: -0.5749657352815697
    y: 1.4001161646148526
    z: 4.515877243458143
  orientation:
    x: 0.6933828925631412
    y: -0.5994656264632737
    z: 0.37388241191778737
    w: 0.14167945880862304
- position:
    x: -1.4589288895043775
    y: 1.1364072245340682
    z: 5.483803610746916
  orientation:
    x: -0.7798036965700745
    y: 0.613056267716329
    z: -0.0362145020501833
    w: 0.12147722943263438
- position:
    x: 0.40305412712856575
    y: 0.8344753068400463
    z: 5.046311273390653
  orientation:
    x: 0.6688652797335823
    y: -0.61548977863158
    z: 0.361066167370402
    w: 0.20838136372385704
- position:
    x: -1.1920125123105543
    y: 0.4021453724432484
    z: 6.11898123169445
  orientation:
    x: -0.7556370228883124
    y: 0.5839293850703424
    z: 0.13073720342211675
    w: 0.266358680228793
- position:
    x: -2.1781833459417554
    y: -0.054821639341287726
    z: 6.9808402785130514
  orientation:
    x: 0.7127906666946895
    y: -0.6231826560997993
    z: 0.2557016621945282
    w: 0.19542134622475224
- position:
    x: 0.18987700297935797
    y: -0.20086522225781808
    z: 6.815064069880473
  orientation:
    x: 0.6563659495601446
    y: -0.6507479876322724
    z: 0.319119515504404
    w: 0.20946009566213908
- position:
    x: -2.8656773500656554
    y: -1.0976705611215225
    z: 8.211417946196395
  orientation:
    x: 0.6829160031023686
    y: -0.6427855035337651
    z: 0.274358558284271
    w: 0.21255566482619492
---
header:
  stamp:
    sec: 2900
    nanosec: 213000000
  frame_id: camera
poses:
- position:
    x: -0.5749657352815697
    y: 1.4001161646148526
    z: 4.515877243458143
  orientation:
    x: 0.6933828925631412
    y: -0.5994656264632737
    z: 0.37388241191778737
    w: 0.14167945880862304
- position:
    x: -1.4589288895043775
    y: 1.1364072245340682
    z: 5.483803610746916
  orientation:
    x: -0.7798036965700745
    y: 0.613056267716329
    z: -0.0362145020501833
    w: 0.12147722943263438
- position:
    x: 0.40305412712856575
    y: 0.8344753068400463
    z: 5.046311273390653
  orientation:
    x: 0.6688652797335823
    y: -0.61548977863158
    z: 0.361066167370402
    w: 0.20838136372385704
- position:
    x: -1.1920125123105543
    y: 0.4021453724432484
    z: 6.11898123169445
  orientation:
    x: -0.7556370228883124
    y: 0.5839293850703424
    z: 0.13073720342211675
    w: 0.266358680228793
- position:
    x: -2.1781833459417554
    y: -0.054821639341287726
    z: 6.9808402785130514
  orientation:
    x: 0.7127906666946895
    y: -0.6231826560997993
    z: 0.2557016621945282
    w: 0.19542134622475224
- position:
    x: 0.18987700297935797
    y: -0.20086522225781808
    z: 6.815064069880473
  orientation:
    x: 0.6563659495601446
    y: -0.6507479876322724
    z: 0.319119515504404
    w: 0.20946009566213908
- position:
    x: -2.8656773500656554
    y: -1.0976705611215225
    z: 8.211417946196395
  orientation:
    x: 0.6829160031023686
    y: -0.6427855035337651
    z: 0.274358558284271
    w: 0.21255566482619492
---
header:
  stamp:
    sec: 2900
    nanosec: 245000000
  frame_id: camera
poses:
- position:
    x: -0.5749657352815697
    y: 1.4001161646148526
    z: 4.515877243458143
  orientation:
    x: 0.6933828925631412
    y: -0.5994656264632737
    z: 0.37388241191778737
    w: 0.14167945880862304
- position:
    x: -1.4589288895043775
    y: 1.1364072245340682
    z: 5.483803610746916
  orientation:
    x: -0.7798036965700745
    y: 0.613056267716329
    z: -0.0362145020501833
    w: 0.12147722943263438
- position:
    x: 0.40305412712856575
    y: 0.8344753068400463
    z: 5.046311273390653
  orientation:
    x: 0.6688652797335823
    y: -0.61548977863158
    z: 0.361066167370402
    w: 0.20838136372385704
- position:
    x: -1.1920125123105543
    y: 0.4021453724432484
    z: 6.11898123169445
  orientation:
    x: -0.7556370228883124
    y: 0.5839293850703424
    z: 0.13073720342211675
    w: 0.266358680228793
- position:
    x: -2.1781833459417554
    y: -0.054821639341287726
    z: 6.9808402785130514
  orientation:
    x: 0.7127906666946895
    y: -0.6231826560997993
    z: 0.2557016621945282
    w: 0.19542134622475224
- position:
    x: 0.18987700297935797
    y: -0.20086522225781808
    z: 6.815064069880473
  orientation:
    x: 0.6563659495601446
    y: -0.6507479876322724
    z: 0.319119515504404
    w: 0.20946009566213908
- position:
    x: -2.8656773500656554
    y: -1.0976705611215225
    z: 8.211417946196395
  orientation:
    x: 0.6829160031023686
    y: -0.6427855035337651
    z: 0.274358558284271
    w: 0.21255566482619492
---
header:
  stamp:
    sec: 2900
    nanosec: 278000000
  frame_id: camera
poses:
- position:
    x: -0.5749657352815697
    y: 1.4001161646148526
    z: 4.515877243458143
  orientation:
    x: 0.6933828925631412
    y: -0.5994656264632737
    z: 0.37388241191778737
    w: 0.14167945880862304
- position:
    x: -1.4589288895043775
    y: 1.1364072245340682
    z: 5.483803610746916
  orientation:
    x: -0.7798036965700745
    y: 0.613056267716329
    z: -0.0362145020501833
    w: 0.12147722943263438
- position:
    x: 0.40305412712856575
    y: 0.8344753068400463
    z: 5.046311273390653
  orientation:
    x: 0.6688652797335823
    y: -0.61548977863158
    z: 0.361066167370402
    w: 0.20838136372385704
- position:
    x: -1.1920125123105543
    y: 0.4021453724432484
    z: 6.11898123169445
  orientation:
    x: -0.7556370228883124
    y: 0.5839293850703424
    z: 0.13073720342211675
    w: 0.266358680228793
- position:
    x: -2.1781833459417554
    y: -0.054821639341287726
    z: 6.9808402785130514
  orientation:
    x: 0.7127906666946895
    y: -0.6231826560997993
    z: 0.2557016621945282
    w: 0.19542134622475224
- position:
    x: 0.18987700297935797
    y: -0.20086522225781808
    z: 6.815064069880473
  orientation:
    x: 0.6563659495601446
    y: -0.6507479876322724
    z: 0.319119515504404
    w: 0.20946009566213908
- position:
    x: -2.8656773500656554
    y: -1.0976705611215225
    z: 8.211417946196395
  orientation:
    x: 0.6829160031023686
    y: -0.6427855035337651
    z: 0.274358558284271
    w: 0.21255566482619492
---
header:
  stamp:
    sec: 2900
    nanosec: 311000000
  frame_id: camera
poses:
- position:
    x: -0.5749657352815697
    y: 1.4001161646148526
    z: 4.515877243458143
  orientation:
    x: 0.6933828925631412
    y: -0.5994656264632737
    z: 0.37388241191778737
    w: 0.14167945880862304
- position:
    x: -1.4589288895043775
    y: 1.1364072245340682
    z: 5.483803610746916
  orientation:
    x: -0.7798036965700745
    y: 0.613056267716329
    z: -0.0362145020501833
    w: 0.12147722943263438
- position:
    x: 0.40305412712856575
    y: 0.8344753068400463
    z: 5.046311273390653
  orientation:
    x: 0.6688652797335823
    y: -0.61548977863158
    z: 0.361066167370402
    w: 0.20838136372385704
- position:
    x: -1.1920125123105543
    y: 0.4021453724432484
    z: 6.11898123169445
  orientation:
    x: -0.7556370228883124
    y: 0.5839293850703424
    z: 0.13073720342211675
    w: 0.266358680228793
- position:
    x: -2.1781833459417554
    y: -0.054821639341287726
    z: 6.9808402785130514
  orientation:
    x: 0.7127906666946895
    y: -0.6231826560997993
    z: 0.2557016621945282
    w: 0.19542134622475224
- position:
    x: 0.18987700297935797
    y: -0.20086522225781808
    z: 6.815064069880473
  orientation:
    x: 0.6563659495601446
    y: -0.6507479876322724
    z: 0.319119515504404
    w: 0.20946009566213908
- position:
    x: -2.8656773500656554
    y: -1.0976705611215225
    z: 8.211417946196395
  orientation:
    x: 0.6829160031023686
    y: -0.6427855035337651
    z: 0.274358558284271
    w: 0.21255566482619492
---
header:
  stamp:
    sec: 2900
    nanosec: 349000000
  frame_id: camera
poses:
- position:
    x: -0.5749657352815697
    y: 1.4001161646148526
    z: 4.515877243458143
  orientation:
    x: 0.6933828925631412
    y: -0.5994656264632737
    z: 0.37388241191778737
    w: 0.14167945880862304
- position:
    x: -1.4589288895043775
    y: 1.1364072245340682
    z: 5.483803610746916
  orientation:
    x: -0.7798036965700745
    y: 0.613056267716329
    z: -0.0362145020501833
    w: 0.12147722943263438
- position:
    x: 0.40305412712856575
    y: 0.8344753068400463
    z: 5.046311273390653
  orientation:
    x: 0.6688652797335823
    y: -0.61548977863158
    z: 0.361066167370402
    w: 0.20838136372385704
- position:
    x: -1.1920125123105543
    y: 0.4021453724432484
    z: 6.11898123169445
  orientation:
    x: -0.7556370228883124
    y: 0.5839293850703424
    z: 0.13073720342211675
    w: 0.266358680228793
- position:
    x: -2.1781833459417554
    y: -0.054821639341287726
    z: 6.9808402785130514
  orientation:
    x: 0.7127906666946895
    y: -0.6231826560997993
    z: 0.2557016621945282
    w: 0.19542134622475224
- position:
    x: 0.18987700297935797
    y: -0.20086522225781808
    z: 6.815064069880473
  orientation:
    x: 0.6563659495601446
    y: -0.6507479876322724
    z: 0.319119515504404
    w: 0.20946009566213908
- position:
    x: -2.8656773500656554
    y: -1.0976705611215225
    z: 8.211417946196395
  orientation:
    x: 0.6829160031023686
    y: -0.6427855035337651
    z: 0.274358558284271
    w: 0.21255566482619492
---
header:
  stamp:
    sec: 2900
    nanosec: 379000000
  frame_id: camera
poses:
- position:
    x: -0.5749657352815697
    y: 1.4001161646148526
    z: 4.515877243458143
  orientation:
    x: 0.6933828925631412
    y: -0.5994656264632737
    z: 0.37388241191778737
    w: 0.14167945880862304
- position:
    x: -1.4589288895043775
    y: 1.1364072245340682
    z: 5.483803610746916
  orientation:
    x: -0.7798036965700745
    y: 0.613056267716329
    z: -0.0362145020501833
    w: 0.12147722943263438
- position:
    x: 0.40305412712856575
    y: 0.8344753068400463
    z: 5.046311273390653
  orientation:
    x: 0.6688652797335823
    y: -0.61548977863158
    z: 0.361066167370402
    w: 0.20838136372385704
- position:
    x: -1.1920125123105543
    y: 0.4021453724432484
    z: 6.11898123169445
  orientation:
    x: -0.7556370228883124
    y: 0.5839293850703424
    z: 0.13073720342211675
    w: 0.266358680228793
- position:
    x: -2.1781833459417554
    y: -0.054821639341287726
    z: 6.9808402785130514
  orientation:
    x: 0.7127906666946895
    y: -0.6231826560997993
    z: 0.2557016621945282
    w: 0.19542134622475224
- position:
    x: 0.18987700297935797
    y: -0.20086522225781808
    z: 6.815064069880473
  orientation:
    x: 0.6563659495601446
    y: -0.6507479876322724
    z: 0.319119515504404
    w: 0.20946009566213908
- position:
    x: -2.8656773500656554
    y: -1.0976705611215225
    z: 8.211417946196395
  orientation:
    x: 0.6829160031023686
    y: -0.6427855035337651
    z: 0.274358558284271
    w: 0.21255566482619492
---
header:
  stamp:
    sec: 2900
    nanosec: 410000000
  frame_id: camera
poses:
- position:
    x: -0.5749657352815697
    y: 1.4001161646148526
    z: 4.515877243458143
  orientation:
    x: 0.6933828925631412
    y: -0.5994656264632737
    z: 0.37388241191778737
    w: 0.14167945880862304
- position:
    x: -1.4589288895043775
    y: 1.1364072245340682
    z: 5.483803610746916
  orientation:
    x: -0.7798036965700745
    y: 0.613056267716329
    z: -0.0362145020501833
    w: 0.12147722943263438
- position:
    x: 0.40305412712856575
    y: 0.8344753068400463
    z: 5.046311273390653
  orientation:
    x: 0.6688652797335823
    y: -0.61548977863158
    z: 0.361066167370402
    w: 0.20838136372385704
- position:
    x: -1.1920125123105543
    y: 0.4021453724432484
    z: 6.11898123169445
  orientation:
    x: -0.7556370228883124
    y: 0.5839293850703424
    z: 0.13073720342211675
    w: 0.266358680228793
- position:
    x: -2.1781833459417554
    y: -0.054821639341287726
    z: 6.9808402785130514
  orientation:
    x: 0.7127906666946895
    y: -0.6231826560997993
    z: 0.2557016621945282
    w: 0.19542134622475224
- position:
    x: 0.18987700297935797
    y: -0.20086522225781808
    z: 6.815064069880473
  orientation:
    x: 0.6563659495601446
    y: -0.6507479876322724
    z: 0.319119515504404
    w: 0.20946009566213908
- position:
    x: -2.8656773500656554
    y: -1.0976705611215225
    z: 8.211417946196395
  orientation:
    x: 0.6829160031023686
    y: -0.6427855035337651
    z: 0.274358558284271
    w: 0.21255566482619492
---
header:
  stamp:
    sec: 2900
    nanosec: 443000000
  frame_id: camera
poses:
- position:
    x: -0.5749657352815697
    y: 1.4001161646148526
    z: 4.515877243458143
  orientation:
    x: 0.6933828925631412
    y: -0.5994656264632737
    z: 0.37388241191778737
    w: 0.14167945880862304
- position:
    x: -1.4589288895043775
    y: 1.1364072245340682
    z: 5.483803610746916
  orientation:
    x: -0.7798036965700745
    y: 0.613056267716329
    z: -0.0362145020501833
    w: 0.12147722943263438
- position:
    x: 0.40305412712856575
    y: 0.8344753068400463
    z: 5.046311273390653
  orientation:
    x: 0.6688652797335823
    y: -0.61548977863158
    z: 0.361066167370402
    w: 0.20838136372385704
- position:
    x: -1.1920125123105543
    y: 0.4021453724432484
    z: 6.11898123169445
  orientation:
    x: -0.7556370228883124
    y: 0.5839293850703424
    z: 0.13073720342211675
    w: 0.266358680228793
- position:
    x: -2.1781833459417554
    y: -0.054821639341287726
    z: 6.9808402785130514
  orientation:
    x: 0.7127906666946895
    y: -0.6231826560997993
    z: 0.2557016621945282
    w: 0.19542134622475224
- position:
    x: 0.18987700297935797
    y: -0.20086522225781808
    z: 6.815064069880473
  orientation:
    x: 0.6563659495601446
    y: -0.6507479876322724
    z: 0.319119515504404
    w: 0.20946009566213908
- position:
    x: -2.8656773500656554
    y: -1.0976705611215225
    z: 8.211417946196395
  orientation:
    x: 0.6829160031023686
    y: -0.6427855035337651
    z: 0.274358558284271
    w: 0.21255566482619492
---
header:
  stamp:
    sec: 2900
    nanosec: 481000000
  frame_id: camera
poses:
- position:
    x: -0.5749657352815697
    y: 1.4001161646148526
    z: 4.515877243458143
  orientation:
    x: 0.6933828925631412
    y: -0.5994656264632737
    z: 0.37388241191778737
    w: 0.14167945880862304
- position:
    x: -1.4589288895043775
    y: 1.1364072245340682
    z: 5.483803610746916
  orientation:
    x: -0.7798036965700745
    y: 0.613056267716329
    z: -0.0362145020501833
    w: 0.12147722943263438
- position:
    x: 0.40305412712856575
    y: 0.8344753068400463
    z: 5.046311273390653
  orientation:
    x: 0.6688652797335823
    y: -0.61548977863158
    z: 0.361066167370402
    w: 0.20838136372385704
- position:
    x: -1.1920125123105543
    y: 0.4021453724432484
    z: 6.11898123169445
  orientation:
    x: -0.7556370228883124
    y: 0.5839293850703424
    z: 0.13073720342211675
    w: 0.266358680228793
- position:
    x: -2.1781833459417554
    y: -0.054821639341287726
    z: 6.9808402785130514
  orientation:
    x: 0.7127906666946895
    y: -0.6231826560997993
    z: 0.2557016621945282
    w: 0.19542134622475224
- position:
    x: 0.18987700297935797
    y: -0.20086522225781808
    z: 6.815064069880473
  orientation:
    x: 0.6563659495601446
    y: -0.6507479876322724
    z: 0.319119515504404
    w: 0.20946009566213908
- position:
    x: -2.8656773500656554
    y: -1.0976705611215225
    z: 8.211417946196395
  orientation:
    x: 0.6829160031023686
    y: -0.6427855035337651
    z: 0.274358558284271
    w: 0.21255566482619492
---
header:
  stamp:
    sec: 2900
    nanosec: 512000000
  frame_id: camera
poses:
- position:
    x: -0.5749657352815697
    y: 1.4001161646148526
    z: 4.515877243458143
  orientation:
    x: 0.6933828925631412
    y: -0.5994656264632737
    z: 0.37388241191778737
    w: 0.14167945880862304
- position:
    x: -1.4589288895043775
    y: 1.1364072245340682
    z: 5.483803610746916
  orientation:
    x: -0.7798036965700745
    y: 0.613056267716329
    z: -0.0362145020501833
    w: 0.12147722943263438
- position:
    x: 0.40305412712856575
    y: 0.8344753068400463
    z: 5.046311273390653
  orientation:
    x: 0.6688652797335823
    y: -0.61548977863158
    z: 0.361066167370402
    w: 0.20838136372385704
- position:
    x: -1.1920125123105543
    y: 0.4021453724432484
    z: 6.11898123169445
  orientation:
    x: -0.7556370228883124
    y: 0.5839293850703424
    z: 0.13073720342211675
    w: 0.266358680228793
- position:
    x: -2.1781833459417554
    y: -0.054821639341287726
    z: 6.9808402785130514
  orientation:
    x: 0.7127906666946895
    y: -0.6231826560997993
    z: 0.2557016621945282
    w: 0.19542134622475224
- position:
    x: 0.18987700297935797
    y: -0.20086522225781808
    z: 6.815064069880473
  orientation:
    x: 0.6563659495601446
    y: -0.6507479876322724
    z: 0.319119515504404
    w: 0.20946009566213908
- position:
    x: -2.8656773500656554
    y: -1.0976705611215225
    z: 8.211417946196395
  orientation:
    x: 0.6829160031023686
    y: -0.6427855035337651
    z: 0.274358558284271
    w: 0.21255566482619492
---
header:
  stamp:
    sec: 2900
    nanosec: 543000000
  frame_id: camera
poses:
- position:
    x: -0.5749657352815697
    y: 1.4001161646148526
    z: 4.515877243458143
  orientation:
    x: 0.6933828925631412
    y: -0.5994656264632737
    z: 0.37388241191778737
    w: 0.14167945880862304
- position:
    x: -1.4589288895043775
    y: 1.1364072245340682
    z: 5.483803610746916
  orientation:
    x: -0.7798036965700745
    y: 0.613056267716329
    z: -0.0362145020501833
    w: 0.12147722943263438
- position:
    x: 0.40305412712856575
    y: 0.8344753068400463
    z: 5.046311273390653
  orientation:
    x: 0.6688652797335823
    y: -0.61548977863158
    z: 0.361066167370402
    w: 0.20838136372385704
- position:
    x: -1.1920125123105543
    y: 0.4021453724432484
    z: 6.11898123169445
  orientation:
    x: -0.7556370228883124
    y: 0.5839293850703424
    z: 0.13073720342211675
    w: 0.266358680228793
- position:
    x: -2.1781833459417554
    y: -0.054821639341287726
    z: 6.9808402785130514
  orientation:
    x: 0.7127906666946895
    y: -0.6231826560997993
    z: 0.2557016621945282
    w: 0.19542134622475224
- position:
    x: 0.18987700297935797
    y: -0.20086522225781808
    z: 6.815064069880473
  orientation:
    x: 0.6563659495601446
    y: -0.6507479876322724
    z: 0.319119515504404
    w: 0.20946009566213908
- position:
    x: -2.8656773500656554
    y: -1.0976705611215225
    z: 8.211417946196395
  orientation:
    x: 0.6829160031023686
    y: -0.6427855035337651
    z: 0.274358558284271
    w: 0.21255566482619492
---
header:
  stamp:
    sec: 2900
    nanosec: 575000000
  frame_id: camera
poses:
- position:
    x: -0.5749657352815697
    y: 1.4001161646148526
    z: 4.515877243458143
  orientation:
    x: 0.6933828925631412
    y: -0.5994656264632737
    z: 0.37388241191778737
    w: 0.14167945880862304
- position:
    x: -1.4589288895043775
    y: 1.1364072245340682
    z: 5.483803610746916
  orientation:
    x: -0.7798036965700745
    y: 0.613056267716329
    z: -0.0362145020501833
    w: 0.12147722943263438
- position:
    x: 0.40305412712856575
    y: 0.8344753068400463
    z: 5.046311273390653
  orientation:
    x: 0.6688652797335823
    y: -0.61548977863158
    z: 0.361066167370402
    w: 0.20838136372385704
- position:
    x: -1.1920125123105543
    y: 0.4021453724432484
    z: 6.11898123169445
  orientation:
    x: -0.7556370228883124
    y: 0.5839293850703424
    z: 0.13073720342211675
    w: 0.266358680228793
- position:
    x: -2.1781833459417554
    y: -0.054821639341287726
    z: 6.9808402785130514
  orientation:
    x: 0.7127906666946895
    y: -0.6231826560997993
    z: 0.2557016621945282
    w: 0.19542134622475224
- position:
    x: 0.18987700297935797
    y: -0.20086522225781808
    z: 6.815064069880473
  orientation:
    x: 0.6563659495601446
    y: -0.6507479876322724
    z: 0.319119515504404
    w: 0.20946009566213908
- position:
    x: -2.8656773500656554
    y: -1.0976705611215225
    z: 8.211417946196395
  orientation:
    x: 0.6829160031023686
    y: -0.6427855035337651
    z: 0.274358558284271
    w: 0.21255566482619492
---
header:
  stamp:
    sec: 2900
    nanosec: 608000000
  frame_id: camera
poses:
- position:
    x: -0.5749657352815697
    y: 1.4001161646148526
    z: 4.515877243458143
  orientation:
    x: 0.6933828925631412
    y: -0.5994656264632737
    z: 0.37388241191778737
    w: 0.14167945880862304
- position:
    x: -1.4589288895043775
    y: 1.1364072245340682
    z: 5.483803610746916
  orientation:
    x: -0.7798036965700745
    y: 0.613056267716329
    z: -0.0362145020501833
    w: 0.12147722943263438
- position:
    x: 0.40305412712856575
    y: 0.8344753068400463
    z: 5.046311273390653
  orientation:
    x: 0.6688652797335823
    y: -0.61548977863158
    z: 0.361066167370402
    w: 0.20838136372385704
- position:
    x: -1.1920125123105543
    y: 0.4021453724432484
    z: 6.11898123169445
  orientation:
    x: -0.7556370228883124
    y: 0.5839293850703424
    z: 0.13073720342211675
    w: 0.266358680228793
- position:
    x: -2.1781833459417554
    y: -0.054821639341287726
    z: 6.9808402785130514
  orientation:
    x: 0.7127906666946895
    y: -0.6231826560997993
    z: 0.2557016621945282
    w: 0.19542134622475224
- position:
    x: 0.18987700297935797
    y: -0.20086522225781808
    z: 6.815064069880473
  orientation:
    x: 0.6563659495601446
    y: -0.6507479876322724
    z: 0.319119515504404
    w: 0.20946009566213908
- position:
    x: -2.8656773500656554
    y: -1.0976705611215225
    z: 8.211417946196395
  orientation:
    x: 0.6829160031023686
    y: -0.6427855035337651
    z: 0.274358558284271
    w: 0.21255566482619492
---
header:
  stamp:
    sec: 2900
    nanosec: 643000000
  frame_id: camera
poses:
- position:
    x: -0.5749657352815697
    y: 1.4001161646148526
    z: 4.515877243458143
  orientation:
    x: 0.6933828925631412
    y: -0.5994656264632737
    z: 0.37388241191778737
    w: 0.14167945880862304
- position:
    x: -1.4589288895043775
    y: 1.1364072245340682
    z: 5.483803610746916
  orientation:
    x: -0.7798036965700745
    y: 0.613056267716329
    z: -0.0362145020501833
    w: 0.12147722943263438
- position:
    x: 0.40305412712856575
    y: 0.8344753068400463
    z: 5.046311273390653
  orientation:
    x: 0.6688652797335823
