transforms:
- header:
    stamp:
      sec: 65
      nanosec: 400000000
    frame_id: /odom
  child_frame_id: base_link
  transform:
    translation:
      x: 0.812181636477687
      y: 2.677667710997305
      z: 0.0
    rotation:
      x: 0.0
      y: -0.0
      z: -0.8028341567350133
      w: -0.5962024125912105
---
transforms:
- header:
    stamp:
      sec: 65
      nanosec: 500000000
    frame_id: /odom
  child_frame_id: base_link
  transform:
    translation:
      x: 0.7977273681566917
      y: 2.72553287710943
      z: 0.0
    rotation:
      x: 0.0
      y: -0.0
      z: -0.8028341567350133
      w: -0.5962024125912105
---
transforms:
- header:
    stamp:
      sec: 65
      nanosec: 600000000
    frame_id: /odom
  child_frame_id: base_link
  transform:
    translation:
      x: 0.7832730998357146
      y: 2.773398043221551
      z: 0.0
    rotation:
      x: 0.0
      y: -0.0
      z: -0.8028341567348772
      w: -0.5962024125913938
---
transforms:
- header:
    stamp:
      sec: 65
      nanosec: 700000000
    frame_id: /odom
  child_frame_id: base_link
  transform:
    translation:
      x: 0.7688188315147414
      y: 2.821263209333676
      z: 0.0
    rotation:
      x: 0.0
      y: -0.0
      z: -0.8028341567349032
      w: -0.596202412591359
---
transforms:
- header:
    stamp:
      sec: 65
      nanosec: 800000000
    frame_id: /odom
  child_frame_id: base_link
  transform:
    translation:
      x: 0.7543645631937504
      y: 2.869128375445799
      z: 0.0
    rotation:
      x: 0.0
      y: -0.0
      z: -0.8028341567350133
      w: -0.5962024125912105
---
transforms:
- header:
    stamp:
      sec: 65
      nanosec: 900000000
    frame_id: /odom
  child_frame_id: base_link
  transform:
    translation:
      x: 0.7399102948727566
      y: 2.9169935415579227
      z: 0.0
    rotation:
      x: 0.0
      y: -0.0
      z: -0.8028341567349566
      w: -0.5962024125912869
---
transforms:
- header:
    stamp:
      sec: 66
      nanosec: 0
    frame_id: /odom
  child_frame_id: base_link
  transform:
    translation:
      x: 0.7254560265517825
      y: 2.9648587076700466
      z: 0.0
    rotation:
      x: 0.0
      y: -0.0
      z: -0.8028341567348772
      w: -0.5962024125913938
---
transforms:
- header:
    stamp:
      sec: 66
      nanosec: 100000000
    frame_id: /odom
  child_frame_id: base_link
  transform:
    translation:
      x: 0.7110017582308078
      y: 3.0127238737821695
      z: 0.0
    rotation:
      x: 0.0
      y: -0.0
      z: -0.8028341567349746
      w: -0.5962024125912626
---
transforms:
- header:
    stamp:
      sec: 66
      nanosec: 200000000
    frame_id: /odom
  child_frame_id: base_link
  transform:
    translation:
      x: 0.6965474899098136
      y: 3.0605890398942925
      z: 0.0
    rotation:
      x: 0.0
      y: -0.0
      z: -0.8028341567350143
      w: -0.5962024125912092
---
transforms:
- header:
    stamp:
      sec: 66
      nanosec: 300000000
    frame_id: /odom
  child_frame_id: base_link
  transform:
    translation:
      x: 0.6820932215888237
      y: 3.1084542060064164
      z: 0.0
    rotation:
      x: 0.0
      y: -0.0
      z: -0.8028341567348862
      w: -0.5962024125913817
---
transforms:
- header:
    stamp:
      sec: 66
      nanosec: 400000000
    frame_id: /odom
  child_frame_id: base_link
  transform:
    translation:
      x: 0.6676389532678508
      y: 3.1563193721185403
      z: 0.0
    rotation:
      x: 0.0
      y: -0.0
      z: -0.8028341567348783
      w: -0.5962024125913925
---
transforms:
- header:
    stamp:
      sec: 66
      nanosec: 500000000
    frame_id: /odom
  child_frame_id: base_link
  transform:
    translation:
      x: 0.653184684946872
      y: 3.2041845382306615
      z: 0.0
    rotation:
      x: 0.0
      y: -0.0
      z: -0.8028341567350149
      w: -0.5962024125912084
---
transforms:
- header:
    stamp:
      sec: 66
      nanosec: 600000000
    frame_id: /odom
  child_frame_id: base_link
  transform:
    translation:
      x: 0.6387304166258766
      y: 3.2520497043427863
      z: 0.0
    rotation:
      x: 0.0
      y: -0.0
      z: -0.8028341567350149
      w: -0.5962024125912084
---
transforms:
- header:
    stamp:
      sec: 66
      nanosec: 700000000
    frame_id: /odom
  child_frame_id: base_link
  transform:
    translation:
      x: 0.6242761483048918
      y: 3.2999148704549093
      z: 0.0
    rotation:
      x: 0.0
      y: -0.0
      z: -0.8028341567348788
      w: -0.5962024125913917
---
transforms:
- header:
    stamp:
      sec: 66
      nanosec: 800000000
    frame_id: /odom
  child_frame_id: base_link
  transform:
    translation:
      x: 0.6098218799839186
      y: 3.347780036567034
      z: 0.0
    rotation:
      x: 0.0
      y: -0.0
      z: -0.8028341567348788
      w: -0.5962024125913917
---
transforms:
- header:
    stamp:
      sec: 66
      nanosec: 900000000
    frame_id: /odom
  child_frame_id: base_link
  transform:
    translation:
      x: 0.5953676116629344
      y: 3.395645202679156
      z: 0.0
    rotation:
      x: 0.0
      y: -0.0
      z: -0.8028341567350133
      w: -0.5962024125912105
---
transforms:
- header:
    stamp:
      sec: 67
      nanosec: 0
    frame_id: /odom
  child_frame_id: base_link
  transform:
    translation:
      x: 0.58091334334197
      y: 3.443510368791209
      z: 0.0
    rotation:
      x: 0.0
      y: -0.0
      z: -0.8028341567348847
      w: -0.5962024125913838
---
transforms:
- header:
    stamp:
      sec: 67
      nanosec: 100000000
    frame_id: /odom
  child_frame_id: base_link
  transform:
    translation:
      x: 0.5664590750210308
      y: 3.4913755349033058
      z: 0.0
    rotation:
      x: 0.0
      y: -0.0
      z: -0.802834156734666
      w: -0.5962024125916784
---
transforms:
- header:
    stamp:
      sec: 67
      nanosec: 200000000
    frame_id: /odom
  child_frame_id: base_link
  transform:
    translation:
      x: 0.552004806700128
      y: 3.539240701015397
      z: 0.0
    rotation:
      x: 0.0
      y: -0.0
      z: -0.8028341567345293
      w: -0.5962024125918624
---
transforms:
- header:
    stamp:
      sec: 67
      nanosec: 300000000
    frame_id: /odom
  child_frame_id: base_link
  transform:
    translation:
      x: 0.5375505383792124
      y: 3.5871058671275184
      z: 0.0
    rotation:
      x: 0.0
      y: -0.0
      z: -0.8028341567345824
      w: -0.5962024125917911
---
transforms:
- header:
    stamp:
      sec: 67
      nanosec: 400000000
    frame_id: /odom
  child_frame_id: base_link
  transform:
    translation:
      x: 0.5230962700583228
      y: 3.6349710332396095
      z: 0.0
    rotation:
      x: 0.0
      y: -0.0
      z: -0.8028341567344165
      w: -0.5962024125920142
---
transforms:
- header:
    stamp:
      sec: 67
      nanosec: 500000000
    frame_id: /odom
  child_frame_id: base_link
  transform:
    translation:
      x: 0.508642001737461
      y: 3.682836199351722
      z: 0.0
    rotation:
      x: 0.0
      y: -0.0
      z: -0.8028341567342111
      w: -0.5962024125922909
---
transforms:
- header:
    stamp:
      sec: 67
      nanosec: 600000000
    frame_id: /odom
  child_frame_id: base_link
  transform:
    translation:
      x: 0.49418773341662253
      y: 3.7307013654638324
      z: 0.0
    rotation:
      x: 0.0
      y: -0.0
      z: -0.8028341567341809
      w: -0.5962024125923315
---
transforms:
- header:
    stamp:
      sec: 67
      nanosec: 700000000
    frame_id: /odom
  child_frame_id: base_link
  transform:
    translation:
      x: 0.4797334650957799
      y: 3.778566531575935
      z: 0.0
    rotation:
      x: 0.0
      y: -0.0
      z: -0.8028341567341274
      w: -0.5962024125924036
---
transforms:
- header:
    stamp:
      sec: 67
      nanosec: 800000000
    frame_id: /odom
  child_frame_id: base_link
  transform:
    translation:
      x: 0.4652791967749591
      y: 3.8264316976880455
      z: 0.0
    rotation:
      x: 0.0
      y: -0.0
      z: -0.8028341567339257
      w: -0.5962024125926753
---
transforms:
- header:
    stamp:
      sec: 67
      nanosec: 900000000
    frame_id: /odom
  child_frame_id: base_link
  transform:
    translation:
      x: 0.4508249284541773
      y: 3.87429686380017
      z: 0.0
    rotation:
      x: 0.0
      y: -0.0
      z: -0.8028341567337562
      w: -0.5962024125929034
---
transforms:
- header:
    stamp:
      sec: 68
      nanosec: 0
    frame_id: /odom
  child_frame_id: base_link
  transform:
    translation:
      x: 0.4363706601334002
      y: 3.9221620299123394
      z: 0.0
    rotation:
      x: 0.0
      y: -0.0
      z: -0.802834156733824
      w: -0.5962024125928121
---
transforms:
- header:
    stamp:
      sec: 68
      nanosec: 100000000
    frame_id: /odom
  child_frame_id: base_link
  transform:
    translation:
      x: 0.42191639181263463
      y: 3.970027196024466
      z: 0.0
    rotation:
      x: 0.0
      y: -0.0
      z: -0.8028341567336715
      w: -0.5962024125930175
---
transforms:
- header:
    stamp:
      sec: 68
      nanosec: 200000000
    frame_id: /odom
  child_frame_id: base_link
  transform:
    translation:
      x: 0.4074621234918868
      y: 4.01789236213663
      z: 0.0
    rotation:
      x: 0.0
      y: -0.0
      z: -0.8028341567334533
      w: -0.5962024125933113
---
transforms:
- header:
    stamp:
      sec: 68
      nanosec: 300000000
    frame_id: /odom
  child_frame_id: base_link
  transform:
    translation:
      x: 0.39300785517118125
      y: 4.065757528248758
      z: 0.0
    rotation:
      x: 0.0
      y: -0.0
      z: -0.8028341567332944
      w: -0.5962024125935251
---
transforms:
- header:
    stamp:
      sec: 68
      nanosec: 400000000
    frame_id: /odom
  child_frame_id: base_link
  transform:
    translation:
      x: 0.3785535868504696
      y: 4.113622694360932
      z: 0.0
    rotation:
      x: 0.0
      y: -0.0
      z: -0.8028341567333686
      w: -0.5962024125934253
---
transforms:
- header:
    stamp:
      sec: 68
      nanosec: 500000000
    frame_id: /odom
  child_frame_id: base_link
  transform:
    translation:
      x: 0.3640993185297773
      y: 4.16148786047306
      z: 0.0
    rotation:
      x: 0.0
      y: -0.0
      z: -0.8028341567332139
      w: -0.5962024125936336
---
transforms:
- header:
    stamp:
      sec: 68
      nanosec: 600000000
    frame_id: /odom
  child_frame_id: base_link
  transform:
    translation:
      x: 0.3496450502091059
      y: 4.209353026585225
      z: 0.0
    rotation:
      x: 0.0
      y: -0.0
      z: -0.8028341567329863
      w: -0.5962024125939402
---
transforms:
- header:
    stamp:
      sec: 68
      nanosec: 700000000
    frame_id: /odom
  child_frame_id: base_link
  transform:
    translation:
      x: 0.3351907818884753
      y: 4.257218192697353
      z: 0.0
    rotation:
      x: 0.0
      y: -0.0
      z: -0.8028341567328295
      w: -0.5962024125941512
---
transforms:
- header:
    stamp:
      sec: 68
      nanosec: 800000000
    frame_id: /odom
  child_frame_id: base_link
  transform:
    translation:
      x: 0.3207365135678298
      y: 4.305083358809527
      z: 0.0
    rotation:
      x: 0.0
      y: -0.0
      z: -0.8028341567329057
      w: -0.5962024125940486
---
transforms:
- header:
    stamp:
      sec: 68
      nanosec: 900000000
    frame_id: /odom
  child_frame_id: base_link
  transform:
    translation:
      x: 0.3062822452472114
      y: 4.352948524921657
      z: 0.0
    rotation:
      x: 0.0
      y: -0.0
      z: -0.8028341567327475
      w: -0.5962024125942619
---
transforms:
- header:
    stamp:
      sec: 69
      nanosec: 0
    frame_id: /odom
  child_frame_id: base_link
  transform:
    translation:
      x: 0.29182797692661777
      y: 4.400813691033835
      z: 0.0
    rotation:
      x: 0.0
      y: -0.0
      z: -0.8028341567325223
      w: -0.5962024125945649
---
transforms:
- header:
    stamp:
      sec: 69
      nanosec: 100000000
    frame_id: /odom
  child_frame_id: base_link
  transform:
    translation:
      x: 0.2773737086060541
      y: 4.448678857146036
      z: 0.0
    rotation:
      x: 0.0
      y: -0.0
      z: -0.8028341567324541
      w: -0.5962024125946568
---
transforms:
- header:
    stamp:
      sec: 69
      nanosec: 200000000
    frame_id: /odom
  child_frame_id: base_link
  transform:
    translation:
      x: 0.2629194402854819
      y: 4.496544023258228
      z: 0.0
    rotation:
      x: 0.0
      y: -0.0
      z: -0.8028341567324382
      w: -0.5962024125946782
---
transforms:
- header:
    stamp:
      sec: 69
      nanosec: 300000000
    frame_id: /odom
  child_frame_id: base_link
  transform:
    translation:
      x: 0.2484651719649339
      y: 4.544409189370464
      z: 0.0
    rotation:
      x: 0.0
      y: -0.0
      z: -0.802834156732238
      w: -0.5962024125949478
---
transforms:
- header:
    stamp:
      sec: 69
      nanosec: 400000000
    frame_id: /odom
  child_frame_id: base_link
  transform:
    translation:
      x: 0.2340109036444232
      y: 4.592274355482696
      z: 0.0
    rotation:
      x: 0.0
      y: -0.0
      z: -0.8028341567320522
      w: -0.596202412595198
---
transforms:
- header:
    stamp:
      sec: 69
      nanosec: 500000000
    frame_id: /odom
  child_frame_id: base_link
  transform:
    translation:
      x: 0.2195566353239242
      y: 4.6401395215949535
      z: 0.0
    rotation:
      x: 0.0
      y: -0.0
      z: -0.802834156732095
      w: -0.5962024125951403
---
transforms:
- header:
    stamp:
      sec: 69
      nanosec: 600000000
    frame_id: /odom
  child_frame_id: base_link
  transform:
    translation:
      x: 0.2051023670034301
      y: 4.688004687707176
      z: 0.0
    rotation:
      x: 0.0
      y: -0.0
      z: -0.802834156731969
      w: -0.5962024125953099
---
transforms:
- header:
    stamp:
      sec: 69
      nanosec: 700000000
    frame_id: /odom
  child_frame_id: base_link
  transform:
    translation:
      x: 0.19064809868295493
      y: 4.73586985381943
      z: 0.0
    rotation:
      x: 0.0
      y: -0.0
      z: -0.8028341567317387
      w: -0.5962024125956202
---
transforms:
- header:
    stamp:
      sec: 69
      nanosec: 800000000
    frame_id: /odom
  child_frame_id: base_link
  transform:
    translation:
      x: 0.17619383036252448
      y: 4.7837350199316475
      z: 0.0
    rotation:
      x: 0.0
      y: -0.0
      z: -0.8028341567315798
      w: -0.5962024125958341
---
transforms:
- header:
    stamp:
      sec: 69
      nanosec: 900000000
    frame_id: /odom
  child_frame_id: base_link
  transform:
    translation:
      x: 0.16173956204209136
      y: 4.831600186043909
      z: 0.0
    rotation:
      x: 0.0
      y: -0.0
      z: -0.8028341567316529
      w: -0.5962024125957357
---
transforms:
- header:
    stamp:
      sec: 70
      nanosec: 0
    frame_id: /odom
  child_frame_id: base_link
  transform:
    translation:
      x: 0.1472852937216748
      y: 4.879465352156126
      z: 0.0
    rotation:
      x: 0.0
      y: -0.0
      z: -0.802834156731494
      w: -0.5962024125959495
---
transforms:
- header:
    stamp:
      sec: 70
      nanosec: 100000000
    frame_id: /odom
  child_frame_id: base_link
  transform:
    translation:
      x: 0.13283102540127853
      y: 4.927330518268381
      z: 0.0
    rotation:
      x: 0.0
      y: -0.0
      z: -0.8028341567312637
      w: -0.5962024125962597
---
transforms:
- header:
    stamp:
      sec: 70
      nanosec: 200000000
    frame_id: /odom
  child_frame_id: base_link
  transform:
    translation:
      x: 0.11837675708092402
      y: 4.975195684380598
      z: 0.0
    rotation:
      x: 0.0
      y: -0.0
      z: -0.8028341567311085
      w: -0.5962024125964687
---
transforms:
- header:
    stamp:
      sec: 70
      nanosec: 300000000
    frame_id: /odom
  child_frame_id: base_link
  transform:
    translation:
      x: 0.1039224887605581
      y: 5.023060850492859
      z: 0.0
    rotation:
      x: 0.0
      y: -0.0
      z: -0.8028341567311826
      w: -0.5962024125963689
---
transforms:
- header:
    stamp:
      sec: 70
      nanosec: 400000000
    frame_id: /odom
  child_frame_id: base_link
  transform:
    translation:
      x: 0.08946822044021682
      y: 5.0709260166050765
      z: 0.0
    rotation:
      x: 0.0
      y: -0.0
      z: -0.8028341567310259
      w: -0.5962024125965799
---
transforms:
- header:
    stamp:
      sec: 70
      nanosec: 500000000
    frame_id: /odom
  child_frame_id: base_link
  transform:
    translation:
      x: 0.07501395211989834
      y: 5.118791182717331
      z: 0.0
    rotation:
      x: 0.0
      y: -0.0
      z: -0.8028341567307966
      w: -0.5962024125968887
---
transforms:
- header:
    stamp:
      sec: 70
      nanosec: 600000000
    frame_id: /odom
  child_frame_id: base_link
  transform:
    translation:
      x: 0.06055968379961421
      y: 5.166656348829591
      z: 0.0
    rotation:
      x: 0.0
      y: -0.0
      z: -0.8028341567306945
      w: -0.5962024125970263
---
transforms:
- header:
    stamp:
      sec: 70
      nanosec: 700000000
    frame_id: /odom
  child_frame_id: base_link
  transform:
    translation:
      x: 0.04610541547931947
      y: 5.2145215149418505
      z: 0.0
    rotation:
      x: 0.0
      y: -0.0
      z: -0.802834156730714
      w: -0.5962024125969999
---
transforms:
- header:
    stamp:
      sec: 70
      nanosec: 800000000
    frame_id: /odom
  child_frame_id: base_link
  transform:
    translation:
      x: 0.031651147159049646
      y: 5.262386681054135
      z: 0.0
    rotation:
      x: 0.0
      y: -0.0
      z: -0.802834156730526
      w: -0.596202412597253
---
transforms:
- header:
    stamp:
      sec: 70
      nanosec: 900000000
    frame_id: /odom
  child_frame_id: base_link
  transform:
    translation:
      x: 0.017196878838813316
      y: 5.310251847166461
      z: 0.0
    rotation:
      x: 0.0
      y: -0.0
      z: -0.8028341567303259
      w: -0.5962024125975226
---
transforms:
- header:
    stamp:
      sec: 71
      nanosec: 0
    frame_id: /odom
  child_frame_id: base_link
  transform:
    translation:
      x: 0.002742610518595301
      y: 5.3581170132788
      z: 0.0
    rotation:
      x: 0.0
      y: -0.0
      z: -0.8028341567303333
      w: -0.5962024125975126
---
transforms:
- header:
    stamp:
      sec: 71
      nanosec: 100000000
    frame_id: /odom
  child_frame_id: base_link
  transform:
    translation:
      x: -0.011711657801622774
      y: 5.405982179391118
      z: 0.0
    rotation:
      x: 0.0
      y: -0.0
      z: -0.8028341567302402
      w: -0.5962024125976382
---
transforms:
- header:
    stamp:
      sec: 71
      nanosec: 200000000
    frame_id: /odom
  child_frame_id: base_link
  transform:
    translation:
      x: -0.026165926121820362
      y: 5.4538473455034575
      z: 0.0
    rotation:
      x: 0.0
      y: -0.0
      z: -0.8028341567300156
      w: -0.5962024125979405
---
transforms:
- header:
    stamp:
      sec: 71
      nanosec: 300000000
    frame_id: /odom
  child_frame_id: base_link
  transform:
    translation:
      x: -0.04062019444197431
      y: 5.501712511615766
      z: 0.0
    rotation:
      x: 0.0
      y: -0.0
      z: -0.8028341567298535
      w: -0.5962024125981586
---
transforms:
- header:
    stamp:
      sec: 71
      nanosec: 400000000
    frame_id: /odom
  child_frame_id: base_link
  transform:
    translation:
      x: -0.05507446276212753
      y: 5.549577677728117
      z: 0.0
    rotation:
      x: 0.0
      y: -0.0
      z: -0.8028341567299261
      w: -0.596202412598061
---
transforms:
- header:
    stamp:
      sec: 71
      nanosec: 500000000
    frame_id: /odom
  child_frame_id: base_link
  transform:
    translation:
      x: -0.06952873108226724
      y: 5.597442843840423
      z: 0.0
    rotation:
      x: 0.0
      y: -0.0
      z: -0.8028341567297693
      w: -0.596202412598272
---
transforms:
- header:
    stamp:
      sec: 71
      nanosec: 600000000
    frame_id: /odom
  child_frame_id: base_link
  transform:
    translation:
      x: -0.08398299940238754
      y: 5.645308009952766
      z: 0.0
    rotation:
      x: 0.0
      y: -0.0
      z: -0.8028341567295406
      w: -0.5962024125985801
---
transforms:
- header:
    stamp:
      sec: 71
      nanosec: 700000000
    frame_id: /odom
  child_frame_id: base_link
  transform:
    translation:
      x: -0.09843726772246529
      y: 5.693173176065072
      z: 0.0
    rotation:
      x: 0.0
      y: -0.0
      z: -0.8028341567293839
      w: -0.5962024125987911
---
transforms:
- header:
    stamp:
      sec: 71
      nanosec: 800000000
    frame_id: /odom
  child_frame_id: base_link
  transform:
    translation:
      x: -0.1128915360425516
      y: 5.741038342177423
      z: 0.0
    rotation:
      x: 0.0
      y: -0.0
      z: -0.8028341567294563
      w: -0.5962024125986934
---
transforms:
- header:
    stamp:
      sec: 71
      nanosec: 900000000
    frame_id: /odom
  child_frame_id: base_link
  transform:
    translation:
      x: -0.1273458043626158
      y: 5.788903508289729
      z: 0.0
    rotation:
      x: 0.0
      y: -0.0
      z: -0.8028341567292975
      w: -0.5962024125989074
---
transforms:
- header:
    stamp:
      sec: 72
      nanosec: 0
    frame_id: /odom
  child_frame_id: base_link
  transform:
    translation:
      x: -0.14180007268265749
      y: 5.836768674402071
      z: 0.0
    rotation:
      x: 0.0
      y: -0.0
      z: -0.8028341567290688
      w: -0.5962024125992154
---
transforms:
- header:
    stamp:
      sec: 72
      nanosec: 100000000
    frame_id: /odom
  child_frame_id: base_link
  transform:
    translation:
      x: -0.15625434100265198
      y: 5.884633840514353
      z: 0.0
    rotation:
      x: 0.0
      y: -0.0
      z: -0.8028341567290063
      w: -0.5962024125992995
---
transforms:
- header:
    stamp:
      sec: 72
      nanosec: 200000000
    frame_id: /odom
  child_frame_id: base_link
  transform:
    translation:
      x: -0.17070860932267257
      y: 5.93249900662665
      z: 0.0
    rotation:
      x: 0.0
      y: -0.0
      z: -0.802834156729153
      w: -0.5962024125991021
---
transforms:
- header:
    stamp:
      sec: 72
      nanosec: 300000000
    frame_id: /odom
  child_frame_id: base_link
  transform:
    translation:
      x: -0.18516287764268297
      y: 5.980364172738895
      z: 0.0
    rotation:
      x: 0.0
      y: -0.0
      z: -0.8028341567291074
      w: -0.5962024125991633
---
transforms:
- header:
    stamp:
      sec: 72
      nanosec: 400000000
    frame_id: /odom
  child_frame_id: base_link
  transform:
    translation:
      x: -0.19961714596268137
      y: 6.028229338851195
      z: 0.0
    rotation:
      x: 0.0
      y: -0.0
      z: -0.8028341567289946
      w: -0.5962024125993152
---
transforms:
- header:
    stamp:
      sec: 72
      nanosec: 500000000
    frame_id: /odom
  child_frame_id: base_link
  transform:
    translation:
      x: -0.2140714142826747
      y: 6.076094504963482
      z: 0.0
    rotation:
      x: 0.0
      y: -0.0
      z: -0.8028341567290836
      w: -0.5962024125991955
---
transforms:
- header:
    stamp:
      sec: 72
      nanosec: 600000000
    frame_id: /odom
  child_frame_id: base_link
  transform:
    translation:
      x: -0.22852568260268827
      y: 6.12395967107574
      z: 0.0
    rotation:
      x: 0.0
      y: -0.0
      z: -0.8028341567291556
      w: -0.5962024125990985
---
transforms:
- header:
    stamp:
      sec: 72
      nanosec: 700000000
    frame_id: /odom
  child_frame_id: base_link
  transform:
    translation:
      x: -0.24297995092270697
      y: 6.171824837188024
      z: 0.0
    rotation:
      x: 0.0
      y: -0.0
      z: -0.8028341567290354
      w: -0.5962024125992603
---
transforms:
- header:
    stamp:
      sec: 72
      nanosec: 800000000
    frame_id: /odom
  child_frame_id: base_link
  transform:
    translation:
      x: -0.25743421924269133
      y: 6.21969000330029
      z: 0.0
    rotation:
      x: 0.0
      y: -0.0
      z: -0.8028341567289967
      w: -0.5962024125993124
---
transforms:
- header:
    stamp:
      sec: 72
      nanosec: 900000000
    frame_id: /odom
  child_frame_id: base_link
  transform:
    translation:
      x: -0.27188848756269995
      y: 6.267555169412608
      z: 0.0
    rotation:
      x: 0.0
      y: -0.0
      z: -0.8028341567291567
      w: -0.596202412599097
---
transforms:
- header:
    stamp:
      sec: 73
      nanosec: 0
    frame_id: /odom
  child_frame_id: base_link
  transform:
    translation:
      x: -0.286342755882703
      y: 6.315420335524829
      z: 0.0
    rotation:
      x: 0.0
      y: -0.0
      z: -0.8028341567291567
      w: -0.596202412599097
---
transforms:
- header:
    stamp:
      sec: 73
      nanosec: 100000000
    frame_id: /odom
  child_frame_id: base_link
  transform:
    translation:
      x: -0.3007970242027218
      y: 6.363285501637137
      z: 0.0
    rotation:
      x: 0.0
      y: -0.0
      z: -0.8028341567289978
      w: -0.596202412599311
---
transforms:
- header:
    stamp:
      sec: 73
      nanosec: 200000000
    frame_id: /odom
  child_frame_id: base_link
  transform:
    translation:
      x: -0.3152512925227011
      y: 6.411150667749386
      z: 0.0
    rotation:
      x: 0.0
      y: -0.0
      z: -0.8028341567289978
      w: -0.596202412599311
---
transforms:
- header:
    stamp:
      sec: 73
      nanosec: 300000000
    frame_id: /odom
  child_frame_id: base_link
  transform:
    translation:
      x: -0.32970556084271607
      y: 6.459015833861697
      z: 0.0
    rotation:
      x: 0.0
      y: -0.0
      z: -0.8028341567291583
      w: -0.5962024125990949
---
transforms:
- header:
    stamp:
      sec: 73
      nanosec: 400000000
    frame_id: /odom
  child_frame_id: base_link
  transform:
    translation:
      x: -0.34415982916272087
      y: 6.5068809999739186
      z: 0.0
    rotation:
      x: 0.0
      y: -0.0
      z: -0.8028341567291567
      w: -0.596202412599097
---
transforms:
- header:
    stamp:
      sec: 73
      nanosec: 500000000
    frame_id: /odom
  child_frame_id: base_link
  transform:
    translation:
      x: -0.3586140974827349
      y: 6.554746166086225
      z: 0.0
    rotation:
      x: 0.0
      y: -0.0
      z: -0.8028341567290015
      w: -0.596202412599306
---
transforms:
- header:
    stamp:
      sec: 73
      nanosec: 600000000
    frame_id: /odom
  child_frame_id: base_link
  transform:
    translation:
      x: -0.3730683658027142
      y: 6.602611332198453
      z: 0.0
    rotation:
      x: 0.0
      y: -0.0
      z: -0.8028341567290015
      w: -0.596202412599306
---
transforms:
- header:
    stamp:
      sec: 73
      nanosec: 700000000
    frame_id: /odom
  child_frame_id: base_link
  transform:
    translation:
      x: -0.38752263412273596
      y: 6.650476498310757
      z: 0.0
    rotation:
      x: 0.0
      y: -0.0
      z: -0.8028341567291567
      w: -0.596202412599097
---
transforms:
- header:
    stamp:
      sec: 73
      nanosec: 800000000
    frame_id: /odom
  child_frame_id: base_link
  transform:
    translation:
      x: -0.4019769024427434
      y: 6.698341664422987
      z: 0.0
    rotation:
      x: 0.0
      y: -0.0
      z: -0.8028341567291408
      w: -0.5962024125991184
---
transforms:
- header:
    stamp:
      sec: 73
      nanosec: 900000000
    frame_id: /odom
  child_frame_id: base_link
  transform:
    translation:
      x: -0.4164311707627491
      y: 6.746206830535287
      z: 0.0
    rotation:
      x: 0.0
      y: -0.0
      z: -0.802834156729002
      w: -0.5962024125993053
---
transforms:
- header:
    stamp:
      sec: 74
      nanosec: 0
    frame_id: /odom
  child_frame_id: base_link
  transform:
    translation:
      x: -0.4308854390827391
      y: 6.7940719966475465
      z: 0.0
    rotation:
      x: 0.0
      y: -0.0
      z: -0.8028341567290646
      w: -0.5962024125992211
---
transforms:
- header:
    stamp:
      sec: 74
      nanosec: 100000000
    frame_id: /odom
  child_frame_id: base_link
  transform:
    translation:
      x: -0.445339707402756
      y: 6.841937162759817
      z: 0.0
    rotation:
      x: 0.0
      y: -0.0
      z: -0.8028341567291567
      w: -0.596202412599097
---
transforms:
- header:
    stamp:
      sec: 74
      nanosec: 200000000
    frame_id: /odom
  child_frame_id: base_link
  transform:
    translation:
      x: -0.4597939757227732
      y: 6.889802328872087
      z: 0.0
    rotation:
      x: 0.0
      y: -0.0
      z: -0.802834156729064
      w: -0.5962024125992218
---
transforms:
- header:
    stamp:
      sec: 74
      nanosec: 300000000
    frame_id: /odom
  child_frame_id: base_link
  transform:
    translation:
      x: -0.4742482440427633
      y: 6.937667494984348
      z: 0.0
    rotation:
      x: 0.0
      y: -0.0
      z: -0.802834156729001
      w: -0.5962024125993067
---
transforms:
- header:
    stamp:
      sec: 74
      nanosec: 400000000
    frame_id: /odom
  child_frame_id: base_link
  transform:
    translation:
      x: -0.48870251236276824
      y: 6.985532661096645
      z: 0.0
    rotation:
      x: 0.0
      y: -0.0
      z: -0.802834156729137
      w: -0.5962024125991234
---
transforms:
- header:
    stamp:
      sec: 74
      nanosec: 500000000
    frame_id: /odom
  child_frame_id: base_link
  transform:
    translation:
      x: -0.5031567806827761
      y: 7.033397827208878
      z: 0.0
    rotation:
      x: 0.0
      y: -0.0
      z: -0.8028341567291598
      w: -0.5962024125990928
---
transforms:
- header:
    stamp:
      sec: 74
      nanosec: 600000000
    frame_id: /odom
  child_frame_id: base_link
  transform:
    translation:
      x: -0.5176110490027962
      y: 7.081262993321182
      z: 0.0
    rotation:
      x: 0.0
      y: -0.0
      z: -0.8028341567290053
      w: -0.5962024125993011
---
transforms:
- header:
    stamp:
      sec: 74
      nanosec: 700000000
    frame_id: /odom
  child_frame_id: base_link
  transform:
    translation:
      x: -0.532065317322776
      y: 7.12912815943341
      z: 0.0
    rotation:
      x: 0.0
      y: -0.0
      z: -0.8028341567290053
      w: -0.5962024125993011
---
transforms:
- header:
    stamp:
      sec: 74
      nanosec: 800000000
    frame_id: /odom
  child_frame_id: base_link
  transform:
    translation:
      x: -0.5465195856427891
      y: 7.176993325545717
      z: 0.0
    rotation:
      x: 0.0
      y: -0.0
      z: -0.8028341567291593
      w: -0.5962024125990935
---
transforms:
- header:
    stamp:
      sec: 74
      nanosec: 900000000
    frame_id: /odom
  child_frame_id: base_link
  transform:
    translation:
      x: -0.5609738539627915
      y: 7.224858491657938
      z: 0.0
    rotation:
      x: 0.0
      y: -0.0
      z: -0.8028341567291593
      w: -0.5962024125990935
---
transforms:
- header:
    stamp:
      sec: 75
      nanosec: 0
    frame_id: /odom
  child_frame_id: base_link
  transform:
    translation:
      x: -0.5754281222828068
      y: 7.272723657770244
      z: 0.0
    rotation:
      x: 0.0
      y: -0.0
      z: -0.8028341567290036
      w: -0.5962024125993031
---
transforms:
- header:
    stamp:
      sec: 75
      nanosec: 100000000
    frame_id: /odom
  child_frame_id: base_link
  transform:
    translation:
      x: -0.5898823906027866
      y: 7.3205888238824715
      z: 0.0
    rotation:
      x: 0.0
      y: -0.0
      z: -0.8028341567290036
      w: -0.5962024125993031
---
transforms:
- header:
    stamp:
      sec: 75
      nanosec: 200000000
    frame_id: /odom
  child_frame_id: base_link
  transform:
    translation:
      x: -0.604336658922805
      y: 7.3684539899947765
      z: 0.0
    rotation:
      x: 0.0
      y: -0.0
      z: -0.8028341567291593
      w: -0.5962024125990935
---
transforms:
- header:
    stamp:
      sec: 75
      nanosec: 300000000
    frame_id: /odom
  child_frame_id: base_link
  transform:
    translation:
      x: -0.6187909272428074
      y: 7.416319156106997
      z: 0.0
    rotation:
      x: 0.0
      y: -0.0
      z: -0.8028341567291593
      w: -0.5962024125990935
---
transforms:
- header:
    stamp:
      sec: 75
      nanosec: 400000000
    frame_id: /odom
  child_frame_id: base_link
  transform:
    translation:
      x: -0.6332451955628177
      y: 7.464184322219305
      z: 0.0
    rotation:
      x: 0.0
      y: -0.0
      z: -0.8028341567290047
      w: -0.5962024125993016
---
transforms:
- header:
    stamp:
      sec: 75
      nanosec: 500000000
    frame_id: /odom
  child_frame_id: base_link
  transform:
    translation:
      x: -0.6476994638828028
      y: 7.51204948833155
      z: 0.0
    rotation:
      x: 0.0
      y: -0.0
      z: -0.802834156729038
      w: -0.5962024125992568
---
transforms:
- header:
    stamp:
      sec: 75
      nanosec: 600000000
    frame_id: /odom
  child_frame_id: base_link
  transform:
    translation:
      x: -0.6621537322028211
      y: 7.559914654443836
      z: 0.0
    rotation:
      x: 0.0
      y: -0.0
      z: -0.8028341567291593
      w: -0.5962024125990935
---
transforms:
- header:
    stamp:
      sec: 75
      nanosec: 700000000
    frame_id: /odom
  child_frame_id: base_link
  transform:
    translation:
      x: -0.6766080005228329
      y: 7.607779820556092
      z: 0.0
    rotation:
      x: 0.0
      y: -0.0
      z: -0.8028341567290931
      w: -0.5962024125991826
---
transforms:
- header:
    stamp:
      sec: 75
      nanosec: 800000000
    frame_id: /odom
  child_frame_id: base_link
  transform:
    translation:
      x: -0.6910622688428282
      y: 7.655644986668366
      z: 0.0
    rotation:
      x: 0.0
      y: -0.0
      z: -0.8028341567290036
      w: -0.5962024125993031
---
transforms:
- header:
    stamp:
      sec: 75
      nanosec: 900000000
    frame_id: /odom
  child_frame_id: base_link
  transform:
    translation:
      x: -0.7055165371628271
      y: 7.703510152780648
      z: 0.0
    rotation:
      x: 0.0
      y: -0.0
      z: -0.8028341567291095
      w: -0.5962024125991605
---
transforms:
- header:
    stamp:
      sec: 76
      nanosec: 0
    frame_id: /odom
  child_frame_id: base_link
  transform:
    translation:
      x: -0.7199708054828372
      y: 7.7513753188928955
      z: 0.0
    rotation:
      x: 0.0
      y: -0.0
      z: -0.8028341567291583
      w: -0.5962024125990949
---
transforms:
- header:
    stamp:
      sec: 76
      nanosec: 100000000
    frame_id: /odom
  child_frame_id: base_link
  transform:
    translation:
      x: -0.7344250738028572
      y: 7.799240485005191
      z: 0.0
    rotation:
      x: 0.0
      y: -0.0
      z: -0.8028341567290206
      w: -0.5962024125992803
---
transforms:
- header:
    stamp:
      sec: 76
      nanosec: 200000000
    frame_id: /odom
  child_frame_id: base_link
  transform:
    translation:
      x: -0.74887934212284
      y: 7.84710565111743
      z: 0.0
    rotation:
      x: 0.0
      y: -0.0
      z: -0.8028341567290036
      w: -0.5962024125993031
---
transforms:
- header:
    stamp:
      sec: 76
      nanosec: 300000000
    frame_id: /odom
  child_frame_id: base_link
  transform:
    translation:
      x: -0.7633336104428515
      y: 7.89497081722974
      z: 0.0
    rotation:
      x: 0.0
      y: -0.0
      z: -0.8028341567291593
      w: -0.5962024125990935
---
transforms:
- header:
    stamp:
      sec: 76
      nanosec: 400000000
    frame_id: /odom
  child_frame_id: base_link
  transform:
    translation:
      x: -0.7777878787628544
      y: 7.94283598334196
      z: 0.0
    rotation:
      x: 0.0
      y: -0.0
      z: -0.8028341567291593
      w: -0.5962024125990935
---
transforms:
- header:
    stamp:
      sec: 76
      nanosec: 500000000
    frame_id: /odom
  child_frame_id: base_link
  transform:
    translation:
      x: -0.7922421470828717
      y: 7.990701149454266
      z: 0.0
    rotation:
      x: 0.0
      y: -0.0
      z: -0.8028341567290036
      w: -0.5962024125993031
---
transforms:
- header:
    stamp:
      sec: 76
      nanosec: 600000000
    frame_id: /odom
  child_frame_id: base_link
  transform:
    translation:
      x: -0.8066964154028519
      y: 8.03856631556656
      z: 0.0
    rotation:
      x: 0.0
      y: -0.0
      z: -0.8028341567290036
      w: -0.5962024125993031
---
transforms:
- header:
    stamp:
      sec: 76
      nanosec: 700000000
    frame_id: /odom
  child_frame_id: base_link
  transform:
    translation:
      x: -0.8211506837228684
      y: 8.086431481678954
      z: 0.0
    rotation:
      x: 0.0
      y: -0.0
      z: -0.8028341567291583
      w: -0.5962024125990949
---
transforms:
- header:
    stamp:
      sec: 76
      nanosec: 800000000
    frame_id: /odom
  child_frame_id: base_link
  transform:
    translation:
      x: -0.8356049520428712
      y: 8.134296647791263
      z: 0.0
    rotation:
      x: 0.0
      y: -0.0
      z: -0.8028341567291583
      w: -0.5962024125990949
---
transforms:
- header:
    stamp:
      sec: 76
      nanosec: 900000000
    frame_id: /odom
  child_frame_id: base_link
  transform:
    translation:
      x: -0.8500592203628833
      y: 8.182161813903656
      z: 0.0
    rotation:
      x: 0.0
      y: -0.0
      z: -0.8028341567290036
      w: -0.5962024125993031
---
transforms:
- header:
    stamp:
      sec: 77
      nanosec: 0
    frame_id: /odom
  child_frame_id: base_link
  transform:
    translation:
      x: -0.8645134886828651
      y: 8.230026980015971
      z: 0.0
    rotation:
      x: 0.0
      y: -0.0
      z: -0.8028341567290137
      w: -0.5962024125992895
---
transforms:
- header:
    stamp:
      sec: 77
      nanosec: 100000000
    frame_id: /odom
  child_frame_id: base_link
  transform:
    translation:
      x: -0.8789677570028857
      y: 8.277892146128359
      z: 0.0
    rotation:
      x: 0.0
      y: -0.0
      z: -0.8028341567291593
      w: -0.5962024125990935
---
transforms:
- header:
    stamp:
      sec: 77
      nanosec: 200000000
    frame_id: /odom
  child_frame_id: base_link
  transform:
    translation:
      x: -0.8934220253228944
      y: 8.32575731224069
      z: 0.0
    rotation:
      x: 0.0
      y: -0.0
      z: -0.8028341567291202
      w: -0.5962024125991463
---
transforms:
- header:
    stamp:
      sec: 77
      nanosec: 300000000
    frame_id: /odom
  child_frame_id: base_link
  transform:
    translation:
      x: -0.9078762936428953
      y: 8.373622478353061
      z: 0.0
    rotation:
      x: 0.0
      y: -0.0
      z: -0.8028341567290042
      w: -0.5962024125993024
---
transforms:
- header:
    stamp:
      sec: 77
      nanosec: 400000000
    frame_id: /odom
  child_frame_id: base_link
  transform:
    translation:
      x: -0.9223305619628895
      y: 8.421487644465415
      z: 0.0
    rotation:
      x: 0.0
      y: -0.0
      z: -0.8028341567290863
      w: -0.5962024125991919
---
transforms:
- header:
    stamp:
      sec: 77
      nanosec: 500000000
    frame_id: /odom
  child_frame_id: base_link
  transform:
    translation:
      x: -0.9367848302829025
      y: 8.469352810577764
      z: 0.0
    rotation:
      x: 0.0
      y: -0.0
      z: -0.8028341567291588
      w: -0.5962024125990941
---
transforms:
- header:
    stamp:
      sec: 77
      nanosec: 600000000
    frame_id: /odom
  child_frame_id: base_link
  transform:
    translation:
      x: -0.9512390986029203
      y: 8.517217976690135
      z: 0.0
    rotation:
      x: 0.0
      y: -0.0
      z: -0.8028341567290439
      w: -0.5962024125992489
---
transforms:
- header:
    stamp:
      sec: 77
      nanosec: 700000000
    frame_id: /odom
  child_frame_id: base_link
  transform:
    translation:
      x: -0.965693366922907
      y: 8.565083142802466
      z: 0.0
    rotation:
      x: 0.0
      y: -0.0
      z: -0.8028341567290042
      w: -0.5962024125993024
---
transforms:
- header:
    stamp:
      sec: 77
      nanosec: 800000000
    frame_id: /odom
  child_frame_id: base_link
  transform:
    translation:
      x: -0.9801476352429167
      y: 8.61294830891486
      z: 0.0
    rotation:
      x: 0.0
      y: -0.0
      z: -0.8028341567291598
      w: -0.5962024125990928
---
transforms:
- header:
    stamp:
      sec: 77
      nanosec: 900000000
    frame_id: /odom
  child_frame_id: base_link
  transform:
    translation:
      x: -0.9946019035629196
      y: 8.660813475027169
      z: 0.0
    rotation:
      x: 0.0
      y: -0.0
      z: -0.8028341567291598
      w: -0.5962024125990928
---
transforms:
- header:
    stamp:
      sec: 78
      nanosec: 0
    frame_id: /odom
  child_frame_id: base_link
  transform:
    translation:
      x: -1.0090561718829385
      y: 8.708678641139562
      z: 0.0
    rotation:
      x: 0.0
      y: -0.0
      z: -0.8028341567290042
      w: -0.5962024125993024
---
transforms:
- header:
    stamp:
      sec: 78
      nanosec: 100000000
    frame_id: /odom
  child_frame_id: base_link
  transform:
    translation:
      x: -1.0235104402029143
      y: 8.756543807251871
      z: 0.0
    rotation:
      x: 0.0
      y: -0.0
      z: -0.8028341567290042
      w: -0.5962024125993024
---
transforms:
- header:
    stamp:
      sec: 78
      nanosec: 200000000
    frame_id: /odom
  child_frame_id: base_link
  transform:
    translation:
      x: -1.0379647085229293
      y: 8.804408973364264
      z: 0.0
    rotation:
      x: 0.0
      y: -0.0
      z: -0.8028341567291588
      w: -0.5962024125990941
---
transforms:
- header:
    stamp:
      sec: 78
      nanosec: 300000000
    frame_id: /odom
  child_frame_id: base_link
  transform:
    translation:
      x: -1.052418976842937
      y: 8.852274139476574
      z: 0.0
    rotation:
      x: 0.0
      y: -0.0
      z: -0.8028341567291588
      w: -0.5962024125990941
---
transforms:
- header:
    stamp:
      sec: 78
      nanosec: 400000000
    frame_id: /odom
  child_frame_id: base_link
  transform:
    translation:
      x: -1.0668732451629506
      y: 8.900139305588967
      z: 0.0
    rotation:
      x: 0.0
      y: -0.0
      z: -0.8028341567290047
      w: -0.5962024125993016
---
transforms:
- header:
    stamp:
      sec: 78
      nanosec: 500000000
    frame_id: /odom
  child_frame_id: base_link
  transform:
    translation:
      x: -1.0813275134829263
      y: 8.948004471701276
      z: 0.0
    rotation:
      x: 0.0
      y: -0.0
      z: -0.8028341567290047
      w: -0.5962024125993016
---
transforms:
- header:
    stamp:
      sec: 78
      nanosec: 600000000
    frame_id: /odom
  child_frame_id: base_link
  transform:
    translation:
      x: -1.0957817818029483
      y: 8.99586963781367
      z: 0.0
    rotation:
      x: 0.0
      y: -0.0
      z: -0.8028341567291598
      w: -0.5962024125990928
---
transforms:
- header:
    stamp:
      sec: 78
      nanosec: 700000000
    frame_id: /odom
  child_frame_id: base_link
  transform:
    translation:
      x: -1.1102360501229576
      y: 9.043734803925988
      z: 0.0
    rotation:
      x: 0.0
      y: -0.0
      z: -0.8028341567291434
      w: -0.5962024125991149
---
transforms:
- header:
    stamp:
      sec: 78
      nanosec: 800000000
    frame_id: /odom
  child_frame_id: base_link
  transform:
    translation:
      x: -1.1246903184429613
      y: 9.091599970038372
      z: 0.0
    rotation:
      x: 0.0
      y: -0.0
      z: -0.8028341567290053
      w: -0.5962024125993011
---
transforms:
- header:
    stamp:
      sec: 78
      nanosec: 900000000
    frame_id: /odom
  child_frame_id: base_link
  transform:
    translation:
      x: -1.1391445867629473
      y: 9.139465136150712
      z: 0.0
    rotation:
      x: 0.0
      y: -0.0
      z: -0.8028341567290619
      w: -0.5962024125992247
---
transforms:
- header:
    stamp:
      sec: 79
      nanosec: 0
    frame_id: /odom
  child_frame_id: base_link
  transform:
    translation:
      x: -1.1535988550829661
      y: 9.187330302263074
      z: 0.0
    rotation:
      x: 0.0
      y: -0.0
      z: -0.8028341567291598
      w: -0.5962024125990928
---
transforms:
- header:
    stamp:
      sec: 79
      nanosec: 100000000
    frame_id: /odom
  child_frame_id: base_link
  transform:
    translation:
      x: -1.168053123402984
      y: 9.235195468375432
      z: 0.0
    rotation:
      x: 0.0
      y: -0.0
      z: -0.8028341567290709
      w: -0.5962024125992126
---
transforms:
- header:
    stamp:
      sec: 79
      nanosec: 200000000
    frame_id: /odom
  child_frame_id: base_link
  transform:
    translation:
      x: -1.1825073917229723
      y: 9.283060634487777
      z: 0.0
    rotation:
      x: 0.0
      y: -0.0
      z: -0.8028341567290042
      w: -0.5962024125993024
---
transforms:
- header:
    stamp:
      sec: 79
      nanosec: 300000000
    frame_id: /odom
  child_frame_id: base_link
  transform:
    translation:
      x: -1.1969616600429736
      y: 9.330925800600156
      z: 0.0
    rotation:
      x: 0.0
      y: -0.0
      z: -0.8028341567291334
      w: -0.5962024125991284
---
transforms:
- header:
    stamp:
      sec: 79
      nanosec: 400000000
    frame_id: /odom
  child_frame_id: base_link
  transform:
    translation:
      x: -1.2114159283629844
      y: 9.37879096671248
      z: 0.0
    rotation:
      x: 0.0
      y: -0.0
      z: -0.8028341567291588
      w: -0.5962024125990941
---
transforms:
- header:
    stamp:
      sec: 79
      nanosec: 500000000
    frame_id: /odom
  child_frame_id: base_link
  transform:
    translation:
      x: -1.2258701966830072
      y: 9.426656132824872
      z: 0.0
    rotation:
      x: 0.0
      y: -0.0
      z: -0.8028341567290047
      w: -0.5962024125993016
---
transforms:
- header:
    stamp:
      sec: 79
      nanosec: 600000000
    frame_id: /odom
  child_frame_id: base_link
  transform:
    translation:
      x: -1.240324465002983
      y: 9.474521298937182
      z: 0.0
    rotation:
      x: 0.0
      y: -0.0
      z: -0.8028341567290047
      w: -0.5962024125993016
---
transforms:
- header:
    stamp:
      sec: 79
      nanosec: 700000000
    frame_id: /odom
  child_frame_id: base_link
  transform:
    translation:
      x: -1.2547787333229952
      y: 9.522386465049575
      z: 0.0
    rotation:
      x: 0.0
      y: -0.0
      z: -0.8028341567291588
      w: -0.5962024125990941
---
transforms:
- header:
    stamp:
      sec: 79
      nanosec: 800000000
    frame_id: /odom
  child_frame_id: base_link
  transform:
    translation:
      x: -1.269233001643002
      y: 9.570251631161884
      z: 0.0
    rotation:
      x: 0.0
      y: -0.0
      z: -0.8028341567291588
      w: -0.5962024125990941
---
transforms:
- header:
    stamp:
      sec: 79
      nanosec: 900000000
    frame_id: /odom
  child_frame_id: base_link
  transform:
    translation:
      x: -1.2836872699630177
      y: 9.618116797274277
      z: 0.0
    rotation:
      x: 0.0
      y: -0.0
      z: -0.8028341567290042
      w: -0.5962024125993024
---
transforms:
- header:
    stamp:
      sec: 80
      nanosec: 0
    frame_id: /odom
  child_frame_id: base_link
  transform:
    translation:
      x: -1.2981415382829935
      y: 9.665981963386587
      z: 0.0
    rotation:
      x: 0.0
      y: -0.0
      z: -0.8028341567290042
      w: -0.5962024125993024
---
transforms:
- header:
    stamp:
      sec: 80
      nanosec: 100000000
    frame_id: /odom
  child_frame_id: base_link
  transform:
    translation:
      x: -1.3125958066030132
      y: 9.71384712949898
      z: 0.0
    rotation:
      x: 0.0
      y: -0.0
      z: -0.8028341567291588
      w: -0.5962024125990941
---
transforms:
- header:
    stamp:
      sec: 80
      nanosec: 200000000
    frame_id: /odom
  child_frame_id: base_link
  transform:
    translation:
      x: -1.32705007492302
      y: 9.76171229561129
      z: 0.0
    rotation:
      x: 0.0
      y: -0.0
      z: -0.8028341567291588
      w: -0.5962024125990941
---
transforms:
- header:
    stamp:
      sec: 80
      nanosec: 300000000
    frame_id: /odom
  child_frame_id: base_link
  transform:
    translation:
      x: -1.341504343243029
      y: 9.809577461723682
      z: 0.0
    rotation:
      x: 0.0
      y: -0.0
      z: -0.8028341567290042
      w: -0.5962024125993024
---
transforms:
- header:
    stamp:
      sec: 80
      nanosec: 400000000
    frame_id: /odom
  child_frame_id: base_link
  transform:
    translation:
      x: -1.3559586115630105
      y: 9.85744262783601
      z: 0.0
    rotation:
      x: 0.0
      y: -0.0
      z: -0.802834156729038
      w: -0.5962024125992568
---
transforms:
- header:
    stamp:
      sec: 80
      nanosec: 500000000
    frame_id: /odom
  child_frame_id: base_link
  transform:
    translation:
      x: -1.370412879883031
      y: 9.905307793948385
      z: 0.0
    rotation:
      x: 0.0
      y: -0.0
      z: -0.8028341567291588
      w: -0.5962024125990941
---
transforms:
- header:
    stamp:
      sec: 80
      nanosec: 600000000
    frame_id: /odom
  child_frame_id: base_link
  transform:
    translation:
      x: -1.3848671482030466
      y: 9.95317296006073
      z: 0.0
    rotation:
      x: 0.0
      y: -0.0
      z: -0.8028341567290936
      w: -0.5962024125991818
---
transforms:
- header:
    stamp:
      sec: 80
      nanosec: 700000000
    frame_id: /odom
  child_frame_id: base_link
  transform:
    translation:
      x: -1.3993214165230394
      y: 10.001038126173087
      z: 0.0
    rotation:
      x: 0.0
      y: -0.0
      z: -0.8028341567290047
      w: -0.5962024125993016
---
transforms:
- header:
    stamp:
      sec: 80
      nanosec: 800000000
    frame_id: /odom
  child_frame_id: base_link
  transform:
    translation:
      x: -1.4137756848430352
      y: 10.048903292285454
      z: 0.0
    rotation:
      x: 0.0
      y: -0.0
      z: -0.8028341567291106
      w: -0.5962024125991591
---
transforms:
- header:
    stamp:
      sec: 80
      nanosec: 900000000
    frame_id: /odom
  child_frame_id: base_link
  transform:
    translation:
      x: -1.428229953163049
      y: 10.09676845839779
      z: 0.0
    rotation:
      x: 0.0
      y: -0.0
      z: -0.8028341567291588
      w: -0.5962024125990941
---
transforms:
- header:
    stamp:
      sec: 81
      nanosec: 0
    frame_id: /odom
  child_frame_id: base_link
  transform:
    translation:
      x: -1.4426842214830717
      y: 10.144633624510174
      z: 0.0
    rotation:
      x: 0.0
      y: -0.0
      z: -0.8028341567290211
      w: -0.5962024125992795
---
transforms:
- header:
    stamp:
      sec: 81
      nanosec: 100000000
    frame_id: /odom
  child_frame_id: base_link
  transform:
    translation:
      x: -1.4571384898030502
      y: 10.192498790622492
      z: 0.0
    rotation:
      x: 0.0
      y: -0.0
      z: -0.8028341567290042
      w: -0.5962024125993024
---
transforms:
- header:
    stamp:
      sec: 81
      nanosec: 200000000
    frame_id: /odom
  child_frame_id: base_link
  transform:
    translation:
      x: -1.4715927581230601
      y: 10.240363956734885
      z: 0.0
    rotation:
      x: 0.0
      y: -0.0
      z: -0.8028341567291598
      w: -0.5962024125990928
---
transforms:
- header:
    stamp:
      sec: 81
      nanosec: 300000000
    frame_id: /odom
  child_frame_id: base_link
  transform:
    translation:
      x: -1.486047026443067
      y: 10.288229122847195
      z: 0.0
    rotation:
      x: 0.0
      y: -0.0
      z: -0.8028341567291598
      w: -0.5962024125990928
---
transforms:
- header:
    stamp:
      sec: 81
      nanosec: 400000000
    frame_id: /odom
  child_frame_id: base_link
  transform:
    translation:
      x: -1.5005012947630854
      y: 10.336094288959588
      z: 0.0
    rotation:
      x: 0.0
      y: -0.0
      z: -0.8028341567290053
      w: -0.5962024125993011
---
transforms:
- header:
    stamp:
      sec: 81
      nanosec: 500000000
    frame_id: /odom
  child_frame_id: base_link
  transform:
    translation:
      x: -1.5149555630830611
      y: 10.383959455071897
      z: 0.0
    rotation:
      x: 0.0
      y: -0.0
      z: -0.8028341567290053
      w: -0.5962024125993011
---
transforms:
- header:
    stamp:
      sec: 81
      nanosec: 600000000
    frame_id: /odom
  child_frame_id: base_link
  transform:
    translation:
      x: -1.529409831403078
      y: 10.43182462118429
      z: 0.0
    rotation:
      x: 0.0
      y: -0.0
      z: -0.8028341567291598
      w: -0.5962024125990928
---
transforms:
- header:
    stamp:
      sec: 81
      nanosec: 700000000
    frame_id: /odom
  child_frame_id: base_link
  transform:
    translation:
      x: -1.5438640997230848
      y: 10.4796897872966
      z: 0.0
    rotation:
      x: 0.0
      y: -0.0
      z: -0.8028341567291598
      w: -0.5962024125990928
---
transforms:
- header:
    stamp:
      sec: 81
      nanosec: 800000000
    frame_id: /odom
  child_frame_id: base_link
  transform:
    translation:
      x: -1.5583183680430965
      y: 10.527554953408995
      z: 0.0
    rotation:
      x: 0.0
      y: -0.0
      z: -0.8028341567290015
      w: -0.596202412599306
---
transforms:
- header:
    stamp:
      sec: 81
      nanosec: 900000000
    frame_id: /odom
  child_frame_id: base_link
  transform:
    translation:
      x: -1.5727726363630734
      y: 10.575420119521308
      z: 0.0
    rotation:
      x: 0.0
      y: -0.0
      z: -0.8028341567290078
      w: -0.5962024125992974
---
transforms:
- header:
    stamp:
      sec: 82
      nanosec: 0
    frame_id: /odom
  child_frame_id: base_link
  transform:
    translation:
      x: -1.5872269046830965
      y: 10.623285285633697
      z: 0.0
    rotation:
      x: 0.0
      y: -0.0
      z: -0.8028341567291567
      w: -0.596202412599097
---
transforms:
- header:
    stamp:
      sec: 82
      nanosec: 100000000
    frame_id: /odom
  child_frame_id: base_link
  transform:
    translation:
      x: -1.6016811730031084
      y: 10.671150451746026
      z: 0.0
    rotation:
      x: 0.0
      y: -0.0
      z: -0.8028341567291212
      w: -0.5962024125991447
---
transforms:
- header:
    stamp:
      sec: 82
      nanosec: 200000000
    frame_id: /odom
  child_frame_id: base_link
  transform:
    translation:
      x: -1.6161354413231075
      y: 10.7190156178584
      z: 0.0
    rotation:
      x: 0.0
      y: -0.0
      z: -0.802834156729002
      w: -0.5962024125993053
---
transforms:
- header:
    stamp:
      sec: 82
      nanosec: 300000000
    frame_id: /odom
  child_frame_id: base_link
  transform:
    translation:
      x: -1.630589709643098
      y: 10.766880783970752
      z: 0.0
    rotation:
      x: 0.0
      y: -0.0
      z: -0.802834156729081
      w: -0.596202412599199
---
transforms:
- header:
    stamp:
      sec: 82
      nanosec: 400000000
    frame_id: /odom
  child_frame_id: base_link
  transform:
    translation:
      x: -1.6450439779631145
      y: 10.814745950083102
      z: 0.0
    rotation:
      x: 0.0
      y: -0.0
      z: -0.8028341567291567
      w: -0.596202412599097
---
transforms:
- header:
    stamp:
      sec: 82
      nanosec: 500000000
    frame_id: /odom
  child_frame_id: base_link
  transform:
    translation:
      x: -1.659498246283134
      y: 10.86261111619547
      z: 0.0
    rotation:
      x: 0.0
      y: -0.0
      z: -0.8028341567290481
      w: -0.5962024125992432
---
transforms:
- header:
    stamp:
      sec: 82
      nanosec: 600000000
    frame_id: /odom
  child_frame_id: base_link
  transform:
    translation:
      x: -1.6739525146031182
      y: 10.910476282307805
      z: 0.0
    rotation:
      x: 0.0
      y: -0.0
      z: -0.802834156729001
      w: -0.5962024125993067
---
transforms:
- header:
    stamp:
      sec: 82
      nanosec: 700000000
    frame_id: /odom
  child_frame_id: base_link
  transform:
    translation:
      x: -1.688406782923125
      y: 10.958341448420196
      z: 0.0
    rotation:
      x: 0.0
      y: -0.0
      z: -0.802834156729153
      w: -0.5962024125991021
---
transforms:
- header:
    stamp:
      sec: 82
      nanosec: 800000000
    frame_id: /odom
  child_frame_id: base_link
  transform:
    translation:
      x: -1.7028610512431324
      y: 11.006206614532507
      z: 0.0
    rotation:
      x: 0.0
      y: -0.0
      z: -0.8028341567291567
      w: -0.596202412599097
---
transforms:
- header:
    stamp:
      sec: 82
      nanosec: 900000000
    frame_id: /odom
  child_frame_id: base_link
  transform:
    translation:
      x: -1.7173153195631534
      y: 11.0540717806449
      z: 0.0
    rotation:
      x: 0.0
      y: -0.0
      z: -0.802834156729002
      w: -0.5962024125993053
---
transforms:
- header:
    stamp:
      sec: 83
      nanosec: 0
    frame_id: /odom
  child_frame_id: base_link
  transform:
    translation:
      x: -1.7317695878831292
      y: 11.10193694675721
      z: 0.0
    rotation:
      x: 0.0
      y: -0.0
      z: -0.802834156729002
      w: -0.5962024125993053
---
transforms:
- header:
    stamp:
      sec: 83
      nanosec: 100000000
    frame_id: /odom
  child_frame_id: base_link
  transform:
    translation:
      x: -1.746223856203144
      y: 11.149802112869603
      z: 0.0
    rotation:
      x: 0.0
      y: -0.0
      z: -0.8028341567291561
      w: -0.5962024125990978
---
transforms:
- header:
    stamp:
      sec: 83
      nanosec: 200000000
    frame_id: /odom
  child_frame_id: base_link
  transform:
    translation:
      x: -1.7606781245231509
      y: 11.197667278981912
      z: 0.0
    rotation:
      x: 0.0
      y: -0.0
      z: -0.8028341567291561
      w: -0.5962024125990978
---
transforms:
- header:
    stamp:
      sec: 83
      nanosec: 300000000
    frame_id: /odom
  child_frame_id: base_link
  transform:
    translation:
      x: -1.7751323928431644
      y: 11.245532445094305
      z: 0.0
    rotation:
      x: 0.0
      y: -0.0
      z: -0.8028341567290005
      w: -0.5962024125993074
---
transforms:
- header:
    stamp:
      sec: 83
      nanosec: 400000000
    frame_id: /odom
  child_frame_id: base_link
  transform:
    translation:
      x: -1.7895866611631401
      y: 11.293397611206615
      z: 0.0
    rotation:
      x: 0.0
      y: -0.0
      z: -0.8028341567290005
      w: -0.5962024125993074
---
transforms:
- header:
    stamp:
      sec: 83
      nanosec: 500000000
    frame_id: /odom
  child_frame_id: base_link
  transform:
    translation:
      x: -1.8040409294831619
      y: 11.341262777319008
      z: 0.0
    rotation:
      x: 0.0
      y: -0.0
      z: -0.8028341567291561
      w: -0.5962024125990978
---
transforms:
- header:
    stamp:
      sec: 83
      nanosec: 600000000
    frame_id: /odom
  child_frame_id: base_link
  transform:
    translation:
      x: -1.8184951978031703
      y: 11.389127943431323
      z: 0.0
    rotation:
      x: 0.0
      y: -0.0
      z: -0.8028341567291466
      w: -0.5962024125991106
---
transforms:
- header:
    stamp:
      sec: 83
      nanosec: 700000000
    frame_id: /odom
  child_frame_id: base_link
  transform:
    translation:
      x: -1.8329494661231756
      y: 11.43699310954371
      z: 0.0
    rotation:
      x: 0.0
      y: -0.0
      z: -0.8028341567290015
      w: -0.596202412599306
---
transforms:
- header:
    stamp:
      sec: 83
      nanosec: 800000000
    frame_id: /odom
  child_frame_id: base_link
  transform:
    translation:
      x: -1.847403734443162
      y: 11.48485827565605
      z: 0.0
    rotation:
      x: 0.0
      y: -0.0
      z: -0.8028341567290581
      w: -0.5962024125992297
---
transforms:
- header:
    stamp:
      sec: 83
      nanosec: 900000000
    frame_id: /odom
  child_frame_id: base_link
  transform:
    translation:
      x: -1.861858002763181
      y: 11.532723441768413
      z: 0.0
    rotation:
      x: 0.0
      y: -0.0
      z: -0.8028341567291571
      w: -0.5962024125990963
---
transforms:
- header:
    stamp:
      sec: 84
      nanosec: 0
    frame_id: /odom
  child_frame_id: base_link
  transform:
    translation:
      x: -1.876312271083199
      y: 11.580588607880768
      z: 0.0
    rotation:
      x: 0.0
      y: -0.0
      z: -0.8028341567290709
      w: -0.5962024125992126
---
