header:
  stamp:
    sec: 2
    nanosec: 748000000
  frame_id: camera
poses:
- position:
    x: -0.2904108929618175
    y: -0.7425263924999455
    z: 5.22449746049896
  orientation:
    x: 0.9303692280373693
    y: 0.021669432234679875
    z: 0.06982188131153864
    w: 0.3592609638102831
---
header:
  stamp:
    sec: 2
    nanosec: 748000000
  frame_id: camera
poses:
- position:
    x: -0.2904108929618175
    y: -0.7425263924999455
    z: 5.22449746049896
  orientation:
    x: 0.9303692280373693
    y: 0.021669432234679875
    z: 0.06982188131153864
    w: 0.3592609638102831
---
header:
  stamp:
    sec: 2
    nanosec: 778000000
  frame_id: camera
poses: []
---
header:
  stamp:
    sec: 2
    nanosec: 778000000
  frame_id: camera
poses: []
---
header:
  stamp:
    sec: 2
    nanosec: 812000000
  frame_id: camera
poses:
- position:
    x: -0.28357242956532075
    y: -0.7025017863384145
    z: 5.084704563335696
  orientation:
    x: 0.91244339509432
    y: 0.012319520481325674
    z: 0.07842882926897567
    w: 0.4014277007175248
---
header:
  stamp:
    sec: 2
    nanosec: 812000000
  frame_id: camera
poses:
- position:
    x: -0.28357242956532075
    y: -0.7025017863384145
    z: 5.084704563335696
  orientation:
    x: 0.91244339509432
    y: 0.012319520481325674
    z: 0.07842882926897567
    w: 0.4014277007175248
---
header:
  stamp:
    sec: 2
    nanosec: 846000000
  frame_id: camera
poses:
- position:
    x: -0.28357852700639474
    y: -0.6914997102315414
    z: 5.084647528828794
  orientation:
    x: 0.912041399309416
    y: 0.0123842451456177
    z: 0.07849633733597317
    w: 0.40232504451342943
---
header:
  stamp:
    sec: 2
    nanosec: 846000000
  frame_id: camera
poses:
- position:
    x: -0.28357852700639474
    y: -0.6914997102315414
    z: 5.084647528828794
  orientation:
    x: 0.912041399309416
    y: 0.0123842451456177
    z: 0.07849633733597317
    w: 0.40232504451342943
---
header:
  stamp:
    sec: 2
    nanosec: 877000000
  frame_id: camera
poses:
- position:
    x: -0.3019500078859497
    y: -0.7208641916847187
    z: 5.379025701364348
  orientation:
    x: 0.9270019098120207
    y: 0.007510305378483906
    z: 0.0701354576934576
    w: 0.36836404831649555
---
header:
  stamp:
    sec: 2
    nanosec: 877000000
  frame_id: camera
poses:
- position:
    x: -0.3019500078859497
    y: -0.7208641916847187
    z: 5.379025701364348
  orientation:
    x: 0.9270019098120207
    y: 0.007510305378483906
    z: 0.0701354576934576
    w: 0.36836404831649555
---
header:
  stamp:
    sec: 2
    nanosec: 944000000
  frame_id: camera
poses:
- position:
    x: -0.2860551719340349
    y: -0.661776383952612
    z: 5.095590617969536
  orientation:
    x: 0.9257267027934009
    y: 0.029180786212690712
    z: 0.05363990849087069
    w: 0.37323091199465097
---
header:
  stamp:
    sec: 2
    nanosec: 979000000
  frame_id: camera
poses:
- position:
    x: -0.2860626380607473
    y: -0.6507587797060412
    z: 5.095574351032656
  orientation:
    x: 0.9253567567240405
    y: 0.029216844464352965
    z: 0.05369664988598136
    w: 0.374136229969423
---
header:
  stamp:
    sec: 2
    nanosec: 979000000
  frame_id: camera
poses:
- position:
    x: -0.2860626380607473
    y: -0.6507587797060412
    z: 5.095574351032656
  orientation:
    x: 0.9253567567240405
    y: 0.029216844464352965
    z: 0.05369664988598136
    w: 0.374136229969423
---
header:
  stamp:
    sec: 3
    nanosec: 44000000
  frame_id: camera
poses:
- position:
    x: -0.2872955143941583
    y: -0.6292154409108064
    z: 5.084709766598037
  orientation:
    x: 0.9097157644422451
    y: 0.012588033210442273
    z: 0.07916307778891477
    w: 0.40742112912825323
---
header:
  stamp:
    sec: 3
    nanosec: 44000000
  frame_id: camera
poses:
- position:
    x: -0.2872955143941583
    y: -0.6292154409108064
    z: 5.084709766598037
  orientation:
    x: 0.9097157644422451
    y: 0.012588033210442273
    z: 0.07916307778891477
    w: 0.40742112912825323
---
header:
  stamp:
    sec: 3
    nanosec: 110000000
  frame_id: camera
poses:
- position:
    x: -0.2812151497063957
    y: -0.5942597124533577
    z: 4.961030906742757
  orientation:
    x: 0.9190882896908472
    y: 0.020148803568801166
    z: 0.0665838915600214
    w: 0.3878625102438009
---
header:
  stamp:
    sec: 3
    nanosec: 110000000
  frame_id: camera
poses:
- position:
    x: -0.2812151497063957
    y: -0.5942597124533577
    z: 4.961030906742757
  orientation:
    x: 0.9190882896908472
    y: 0.020148803568801166
    z: 0.0665838915600214
    w: 0.3878625102438009
---
header:
  stamp:
    sec: 3
    nanosec: 142000000
  frame_id: camera
poses:
- position:
    x: -0.2812200365381447
    y: -0.5835332985845814
    z: 4.960993017787823
  orientation:
    x: 0.918697072852948
    y: 0.020199476734584
    z: 0.06664761070915644
    w: 0.38877469755352506
---
header:
  stamp:
    sec: 3
    nanosec: 142000000
  frame_id: camera
poses:
- position:
    x: -0.2812200365381447
    y: -0.5835332985845814
    z: 4.960993017787823
  orientation:
    x: 0.918697072852948
    y: 0.020199476734584
    z: 0.06664761070915644
    w: 0.38877469755352506
---
header:
  stamp:
    sec: 3
    nanosec: 208000000
  frame_id: camera
poses:
- position:
    x: -0.2838334457360389
    y: -0.5625233126545887
    z: 4.974781308998458
  orientation:
    x: -0.8632641410450298
    y: -0.04233788249344239
    z: -0.002227008252960269
    w: 0.5029687534290769
---
header:
  stamp:
    sec: 3
    nanosec: 208000000
  frame_id: camera
poses:
- position:
    x: -0.2838334457360389
    y: -0.5625233126545887
    z: 4.974781308998458
  orientation:
    x: -0.8632641410450298
    y: -0.04233788249344239
    z: -0.002227008252960269
    w: 0.5029687534290769
---
header:
  stamp:
    sec: 3
    nanosec: 240000000
  frame_id: camera
poses:
- position:
    x: -0.2830627888532133
    y: -0.5511449222383878
    z: 4.961090830862963
  orientation:
    x: -0.871065944149163
    y: -0.04965640351914824
    z: 0.012307672224166576
    w: 0.48849450737699524
---
header:
  stamp:
    sec: 3
    nanosec: 240000000
  frame_id: camera
poses:
- position:
    x: -0.2830627888532133
    y: -0.5511449222383878
    z: 4.961090830862963
  orientation:
    x: -0.871065944149163
    y: -0.04965640351914824
    z: 0.012307672224166576
    w: 0.48849450737699524
---
header:
  stamp:
    sec: 3
    nanosec: 275000000
  frame_id: camera
poses:
- position:
    x: -0.27722540183343336
    y: -0.5278891883072696
    z: 4.843852012198221
  orientation:
    x: 0.9145563223347412
    y: 0.027141775663528933
    z: 0.05185947736910846
    w: 0.4002007644900077
---
header:
  stamp:
    sec: 3
    nanosec: 275000000
  frame_id: camera
poses:
- position:
    x: -0.27722540183343336
    y: -0.5278891883072696
    z: 4.843852012198221
  orientation:
    x: 0.9145563223347412
    y: 0.027141775663528933
    z: 0.05185947736910846
    w: 0.4002007644900077
---
header:
  stamp:
    sec: 3
    nanosec: 307000000
  frame_id: camera
poses:
- position:
    x: -0.2836842155233785
    y: -0.5269261094726199
    z: 4.9411942198750065
  orientation:
    x: 0.9209686205499457
    y: 0.02657233514523849
    z: 0.08355176740404263
    w: 0.3796443245077158
---
header:
  stamp:
    sec: 3
    nanosec: 307000000
  frame_id: camera
poses:
- position:
    x: -0.2836842155233785
    y: -0.5269261094726199
    z: 4.9411942198750065
  orientation:
    x: 0.9209686205499457
    y: 0.02657233514523849
    z: 0.08355176740404263
    w: 0.3796443245077158
---
header:
  stamp:
    sec: 3
    nanosec: 341000000
  frame_id: camera
poses:
- position:
    x: -0.2836846739566633
    y: -0.5162414041314669
    z: 4.941107147015761
  orientation:
    x: 0.9205782260069776
    y: 0.02664080915609751
    z: 0.08361623525989981
    w: 0.3805710476249023
---
header:
  stamp:
    sec: 3
    nanosec: 341000000
  frame_id: camera
poses:
- position:
    x: -0.2836846739566633
    y: -0.5162414041314669
    z: 4.941107147015761
  orientation:
    x: 0.9205782260069776
    y: 0.02664080915609751
    z: 0.08361623525989981
    w: 0.3805710476249023
---
header:
  stamp:
    sec: 3
    nanosec: 374000000
  frame_id: camera
poses:
- position:
    x: -0.28472835273527347
    y: -0.5065166529983888
    z: 4.959106476800132
  orientation:
    x: 0.9280748210128602
    y: 0.020614609481778512
    z: 0.07052834189706343
    w: 0.365072482484112
---
header:
  stamp:
    sec: 3
    nanosec: 374000000
  frame_id: camera
poses:
- position:
    x: -0.28472835273527347
    y: -0.5065166529983888
    z: 4.959106476800132
  orientation:
    x: 0.9280748210128602
    y: 0.020614609481778512
    z: 0.07052834189706343
    w: 0.365072482484112
---
header:
  stamp:
    sec: 3
    nanosec: 405000000
  frame_id: camera
poses:
- position:
    x: -0.27815981148602237
    y: -0.4828539444611804
    z: 4.829539267219202
  orientation:
    x: 0.9224868138892679
    y: 0.012115407717099735
    z: 0.08257295696512335
    w: 0.376899193252402
---
header:
  stamp:
    sec: 3
    nanosec: 405000000
  frame_id: camera
poses:
- position:
    x: -0.27815981148602237
    y: -0.4828539444611804
    z: 4.829539267219202
  orientation:
    x: 0.9224868138892679
    y: 0.012115407717099735
    z: 0.08257295696512335
    w: 0.376899193252402
---
header:
  stamp:
    sec: 3
    nanosec: 439000000
  frame_id: camera
poses:
- position:
    x: -0.2807404153791129
    y: -0.4738203490593107
    z: 4.843836763658492
  orientation:
    x: 0.9247000309022494
    y: 0.027327145394945185
    z: 0.05436568776996812
    w: 0.37580241080552024
---
header:
  stamp:
    sec: 3
    nanosec: 439000000
  frame_id: camera
poses:
- position:
    x: -0.2807404153791129
    y: -0.4738203490593107
    z: 4.843836763658492
  orientation:
    x: 0.9247000309022494
    y: 0.027327145394945185
    z: 0.05436568776996812
    w: 0.37580241080552024
---
header:
  stamp:
    sec: 3
    nanosec: 472000000
  frame_id: camera
poses:
- position:
    x: -0.2807441492516421
    y: -0.46335656594480823
    z: 4.843827876986766
  orientation:
    x: 0.9243160671737982
    y: 0.027363275177069324
    z: 0.05442625622661902
    w: 0.3767344446279118
---
header:
  stamp:
    sec: 3
    nanosec: 472000000
  frame_id: camera
poses:
- position:
    x: -0.2807441492516421
    y: -0.46335656594480823
    z: 4.843827876986766
  orientation:
    x: 0.9243160671737982
    y: 0.027363275177069324
    z: 0.05442625622661902
    w: 0.3767344446279118
---
header:
  stamp:
    sec: 3
    nanosec: 504000000
  frame_id: camera
poses: []
---
header:
  stamp:
    sec: 3
    nanosec: 504000000
  frame_id: camera
poses: []
---
header:
  stamp:
    sec: 3
    nanosec: 537000000
  frame_id: camera
poses:
- position:
    x: -0.2787155558216994
    y: -0.43750824040146724
    z: 4.808882330960515
  orientation:
    x: 0.920099154932553
    y: 0.03951556154283209
    z: 0.08406093429645058
    w: 0.38051258167577606
---
header:
  stamp:
    sec: 3
    nanosec: 537000000
  frame_id: camera
poses:
- position:
    x: -0.2787155558216994
    y: -0.43750824040146724
    z: 4.808882330960515
  orientation:
    x: 0.920099154932553
    y: 0.03951556154283209
    z: 0.08406093429645058
    w: 0.38051258167577606
---
header:
  stamp:
    sec: 3
    nanosec: 570000000
  frame_id: camera
poses:
- position:
    x: -0.2816631612385173
    y: -0.42722162616981424
    z: 4.829574788647949
  orientation:
    x: 0.9203745516291246
    y: 0.012322344886789072
    z: 0.08329112017877327
    w: 0.3818657274872206
---
header:
  stamp:
    sec: 3
    nanosec: 570000000
  frame_id: camera
poses:
- position:
    x: -0.2816631612385173
    y: -0.42722162616981424
    z: 4.829574788647949
  orientation:
    x: 0.9203745516291246
    y: 0.012322344886789072
    z: 0.08329112017877327
    w: 0.3818657274872206
---
header:
  stamp:
    sec: 3
    nanosec: 603000000
  frame_id: camera
poses:
- position:
    x: -0.2816627488115679
    y: -0.4167868140246507
    z: 4.829514816460018
  orientation:
    x: 0.9199759028423925
    y: 0.012389826026739381
    z: 0.08336766190890219
    w: 0.3828063000372315
---
header:
  stamp:
    sec: 3
    nanosec: 603000000
  frame_id: camera
poses:
- position:
    x: -0.2816627488115679
    y: -0.4167868140246507
    z: 4.829514816460018
  orientation:
    x: 0.9199759028423925
    y: 0.012389826026739381
    z: 0.08336766190890219
    w: 0.3828063000372315
---
header:
  stamp:
    sec: 3
    nanosec: 636000000
  frame_id: camera
poses:
- position:
    x: -0.27621638513155483
    y: -0.39727107852184323
    z: 4.721453592874735
  orientation:
    x: 0.9172537902866426
    y: 0.019071450540741053
    z: 0.06727435690212613
    w: 0.3921172335953436
---
header:
  stamp:
    sec: 3
    nanosec: 636000000
  frame_id: camera
poses:
- position:
    x: -0.27621638513155483
    y: -0.39727107852184323
    z: 4.721453592874735
  orientation:
    x: 0.9172537902866426
    y: 0.019071450540741053
    z: 0.06727435690212613
    w: 0.3921172335953436
---
header:
  stamp:
    sec: 3
    nanosec: 670000000
  frame_id: camera
poses: []
---
header:
  stamp:
    sec: 3
    nanosec: 670000000
  frame_id: camera
poses: []
---
header:
  stamp:
    sec: 3
    nanosec: 702000000
  frame_id: camera
poses:
- position:
    x: -0.28423314155151214
    y: -0.3848712084527195
    z: 4.843433703859588
  orientation:
    x: 0.9335792764070837
    y: 0.027732271914417517
    z: 0.05759900019772615
    w: 0.35262304367966807
---
header:
  stamp:
    sec: 3
    nanosec: 702000000
  frame_id: camera
poses:
- position:
    x: -0.28423314155151214
    y: -0.3848712084527195
    z: 4.843433703859588
  orientation:
    x: 0.9335792764070837
    y: 0.027732271914417517
    z: 0.05759900019772615
    w: 0.35262304367966807
---
header:
  stamp:
    sec: 3
    nanosec: 735000000
  frame_id: camera
poses:
- position:
    x: -0.2779635739307485
    y: -0.363047916856293
    z: 4.7215721950517535
  orientation:
    x: -0.8853211600753014
    y: -0.047402245581300684
    z: 0.012215314024489637
    w: 0.46239621185738095
---
header:
  stamp:
    sec: 3
    nanosec: 735000000
  frame_id: camera
poses:
- position:
    x: -0.2779635739307485
    y: -0.363047916856293
    z: 4.7215721950517535
  orientation:
    x: -0.8853211600753014
    y: -0.047402245581300684
    z: 0.012215314024489637
    w: 0.46239621185738095
---
header:
  stamp:
    sec: 3
    nanosec: 768000000
  frame_id: camera
poses:
- position:
    x: -0.2718157416709166
    y: -0.3431583336013605
    z: 4.603008200432071
  orientation:
    x: -0.8883178249011969
    y: -0.05930059384295577
    z: 0.011186612405495863
    w: 0.4552469014013917
---
header:
  stamp:
    sec: 3
    nanosec: 768000000
  frame_id: camera
poses:
- position:
    x: -0.2718157416709166
    y: -0.3431583336013605
    z: 4.603008200432071
  orientation:
    x: -0.8883178249011969
    y: -0.05930059384295577
    z: 0.011186612405495863
    w: 0.4552469014013917
---
header:
  stamp:
    sec: 3
    nanosec: 801000000
  frame_id: camera
poses:
- position:
    x: -0.2778480989826924
    y: -0.34081223488520207
    z: 4.719525209235057
  orientation:
    x: -0.9006539899325359
    y: -0.046135555014703955
    z: 0.01494732875627243
    w: 0.4318222763419471
---
header:
  stamp:
    sec: 3
    nanosec: 801000000
  frame_id: camera
poses:
- position:
    x: -0.2778480989826924
    y: -0.34081223488520207
    z: 4.719525209235057
  orientation:
    x: -0.9006539899325359
    y: -0.046135555014703955
    z: 0.01494732875627243
    w: 0.4318222763419471
---
header:
  stamp:
    sec: 3
    nanosec: 834000000
  frame_id: camera
poses:
- position:
    x: -0.27952029899317615
    y: -0.3308887482553999
    z: 4.719650588890184
  orientation:
    x: 0.9265539002429483
    y: 0.01954379352427693
    z: 0.07120205768959262
    w: 0.36884438054554775
---
header:
  stamp:
    sec: 3
    nanosec: 868000000
  frame_id: camera
poses:
- position:
    x: -0.28486947828927817
    y: -0.3243613101349026
    z: 4.824687500510696
  orientation:
    x: 0.9283362525422039
    y: 0.013197087163565158
    z: 0.08894700615023
    w: 0.36070218907459617
---
header:
  stamp:
    sec: 3
    nanosec: 868000000
  frame_id: camera
poses:
- position:
    x: -0.28486947828927817
    y: -0.3243613101349026
    z: 4.824687500510696
  orientation:
    x: 0.9283362525422039
    y: 0.013197087163565158
    z: 0.08894700615023
    w: 0.36070218907459617
---
header:
  stamp:
    sec: 3
    nanosec: 900000000
  frame_id: camera
poses:
- position:
    x: -0.2733642539770137
    y: -0.2994540510429378
    z: 4.601770995636964
  orientation:
    x: 0.9203727456764931
    y: 0.011764071105939689
    z: 0.08318706888058373
    w: 0.38191036542359624
---
header:
  stamp:
    sec: 3
    nanosec: 900000000
  frame_id: camera
poses:
- position:
    x: -0.2733642539770137
    y: -0.2994540510429378
    z: 4.601770995636964
  orientation:
    x: 0.9203727456764931
    y: 0.011764071105939689
    z: 0.08318706888058373
    w: 0.38191036542359624
---
header:
  stamp:
    sec: 3
    nanosec: 933000000
  frame_id: camera
poses:
- position:
    x: -0.2739521630928515
    y: -0.28675255547353073
    z: 4.583945168492125
  orientation:
    x: 0.9191883069909559
    y: 0.03757881050430689
    z: 0.08407558078188727
    w: 0.38289944634116413
---
header:
  stamp:
    sec: 3
    nanosec: 933000000
  frame_id: camera
poses:
- position:
    x: -0.2739521630928515
    y: -0.28675255547353073
    z: 4.583945168492125
  orientation:
    x: 0.9191883069909559
    y: 0.03757881050430689
    z: 0.08407558078188727
    w: 0.38289944634116413
---
header:
  stamp:
    sec: 3
    nanosec: 966000000
  frame_id: camera
poses:
- position:
    x: -0.27587655055263377
    y: -0.27713512680950636
    z: 4.615958022493847
  orientation:
    x: 0.9220654586505551
    y: 0.02579028147284984
    z: 0.0554706915045262
    w: 0.3821690119948271
---
header:
  stamp:
    sec: 3
    nanosec: 966000000
  frame_id: camera
poses:
- position:
    x: -0.27587655055263377
    y: -0.27713512680950636
    z: 4.615958022493847
  orientation:
    x: 0.9220654586505551
    y: 0.02579028147284984
    z: 0.0554706915045262
    w: 0.3821690119948271
---
header:
  stamp:
    sec: 3
    nanosec: 999000000
  frame_id: camera
poses:
- position:
    x: -0.27503969171099435
    y: -0.2652423153183655
    z: 4.601394558660198
  orientation:
    x: -0.9058989804351776
    y: -0.057843332548341786
    z: 0.014495545340853781
    w: 0.41927445103592836
---
header:
  stamp:
    sec: 4
    nanosec: 33000000
  frame_id: camera
poses:
- position:
    x: -0.27498441761353276
    y: -0.25390949166690674
    z: 4.601179029511102
  orientation:
    x: 0.9255608579709266
    y: 0.03189910296021492
    z: 0.07182788822853534
    w: 0.37035158956737974
---
header:
  stamp:
    sec: 4
    nanosec: 33000000
  frame_id: camera
poses:
- position:
    x: -0.27498441761353276
    y: -0.25390949166690674
    z: 4.601179029511102
  orientation:
    x: 0.9255608579709266
    y: 0.03189910296021492
    z: 0.07182788822853534
    w: 0.37035158956737974
---
header:
  stamp:
    sec: 4
    nanosec: 65000000
  frame_id: camera
poses:
- position:
    x: -0.27531261184003536
    y: -0.24117142998511965
    z: 4.579233792852977
  orientation:
    x: 0.9215417150627254
    y: 0.01819135046416942
    z: 0.10039999632697337
    w: 0.37463286415514063
---
header:
  stamp:
    sec: 4
    nanosec: 65000000
  frame_id: camera
poses:
- position:
    x: -0.27531261184003536
    y: -0.24117142998511965
    z: 4.579233792852977
  orientation:
    x: 0.9215417150627254
    y: 0.01819135046416942
    z: 0.10039999632697337
    w: 0.37463286415514063
---
header:
  stamp:
    sec: 4
    nanosec: 98000000
  frame_id: camera
poses:
- position:
    x: -0.2753162432270078
    y: -0.2296508515354521
    z: 4.57932667311973
  orientation:
    x: 0.9210951125834355
    y: 0.018191395299243907
    z: 0.10067809863922847
    w: 0.37565514393704863
---
header:
  stamp:
    sec: 4
    nanosec: 98000000
  frame_id: camera
poses:
- position:
    x: -0.2753162432270078
    y: -0.2296508515354521
    z: 4.57932667311973
  orientation:
    x: 0.9210951125834355
    y: 0.018191395299243907
    z: 0.10067809863922847
    w: 0.37565514393704863
---
header:
  stamp:
    sec: 4
    nanosec: 131000000
  frame_id: camera
poses: []
---
header:
  stamp:
    sec: 4
    nanosec: 131000000
  frame_id: camera
poses: []
---
header:
  stamp:
    sec: 4
    nanosec: 164000000
  frame_id: camera
poses:
- position:
    x: -0.2705899732872348
    y: -0.2024575759516397
    z: 4.487307860590723
  orientation:
    x: 0.9182394864938527
    y: 0.024262071329614943
    z: 0.0839133339743045
    w: 0.38627211874482903
---
header:
  stamp:
    sec: 4
    nanosec: 164000000
  frame_id: camera
poses:
- position:
    x: -0.2705899732872348
    y: -0.2024575759516397
    z: 4.487307860590723
  orientation:
    x: 0.9182394864938527
    y: 0.024262071329614943
    z: 0.0839133339743045
    w: 0.38627211874482903
---
header:
  stamp:
    sec: 4
    nanosec: 197000000
  frame_id: camera
poses:
- position:
    x: -0.2791620385411182
    y: -0.19579663061803249
    z: 4.615572901142427
  orientation:
    x: 0.9307719133883607
    y: 0.026272372804476474
    z: 0.058831549919251706
    w: 0.3598781132671047
---
header:
  stamp:
    sec: 4
    nanosec: 197000000
  frame_id: camera
poses:
- position:
    x: -0.2791620385411182
    y: -0.19579663061803249
    z: 4.615572901142427
  orientation:
    x: 0.9307719133883607
    y: 0.026272372804476474
    z: 0.058831549919251706
    w: 0.3598781132671047
---
header:
  stamp:
    sec: 4
    nanosec: 230000000
  frame_id: camera
poses:
- position:
    x: -0.2769736820118871
    y: -0.18274985713587005
    z: 4.5796621258712475
  orientation:
    x: 0.9264418397463627
    y: 0.03821287112633992
    z: 0.08950324028423734
    w: 0.36364056982998866
---
header:
  stamp:
    sec: 4
    nanosec: 230000000
  frame_id: camera
poses:
- position:
    x: -0.2769736820118871
    y: -0.18274985713587005
    z: 4.5796621258712475
  orientation:
    x: 0.9264418397463627
    y: 0.03821287112633992
    z: 0.08950324028423734
    w: 0.36364056982998866
---
header:
  stamp:
    sec: 4
    nanosec: 263000000
  frame_id: camera
poses:
- position:
    x: -0.2682114287219793
    y: -0.1648395376760678
    z: 4.408425063425791
  orientation:
    x: 0.9217490272232688
    y: 0.02433118733377415
    z: 0.05598534133803221
    w: 0.38295217154515565
---
header:
  stamp:
    sec: 4
    nanosec: 263000000
  frame_id: camera
poses:
- position:
    x: -0.2682114287219793
    y: -0.1648395376760678
    z: 4.408425063425791
  orientation:
    x: 0.9217490272232688
    y: 0.02433118733377415
    z: 0.05598534133803221
    w: 0.38295217154515565
---
header:
  stamp:
    sec: 4
    nanosec: 296000000
  frame_id: camera
poses:
- position:
    x: -0.26737123241880784
    y: -0.15248497272306594
    z: 4.394805767185781
  orientation:
    x: 0.9254979709728163
    y: 0.03028151101794846
    z: 0.07191132217460926
    w: 0.3706282471139639
---
header:
  stamp:
    sec: 4
    nanosec: 296000000
  frame_id: camera
poses:
- position:
    x: -0.26737123241880784
    y: -0.15248497272306594
    z: 4.394805767185781
  orientation:
    x: 0.9254979709728163
    y: 0.03028151101794846
    z: 0.07191132217460926
    w: 0.3706282471139639
---
header:
  stamp:
    sec: 4
    nanosec: 329000000
  frame_id: camera
poses:
- position:
    x: -0.2723862104602142
    y: -0.14285625061322246
    z: 4.464242332186709
  orientation:
    x: 0.9191084769734141
    y: 0.0305955583485506
    z: 0.1008191845201355
    w: 0.3796564386358362
---
header:
  stamp:
    sec: 4
    nanosec: 329000000
  frame_id: camera
poses:
- position:
    x: -0.2723862104602142
    y: -0.14285625061322246
    z: 4.464242332186709
  orientation:
    x: 0.9191084769734141
    y: 0.0305955583485506
    z: 0.1008191845201355
    w: 0.3796564386358362
---
header:
  stamp:
    sec: 4
    nanosec: 395000000
  frame_id: camera
poses:
- position:
    x: -0.27638824090359976
    y: -0.11955247714710504
    z: 4.502615510929329
  orientation:
    x: -0.9146216987271553
    y: -0.04393344808646121
    z: 0.015473533101193027
    w: 0.4016186874761349
---
header:
  stamp:
    sec: 4
    nanosec: 395000000
  frame_id: camera
poses:
- position:
    x: -0.27638824090359976
    y: -0.11955247714710504
    z: 4.502615510929329
  orientation:
    x: -0.9146216987271553
    y: -0.04393344808646121
    z: 0.015473533101193027
    w: 0.4016186874761349
---
header:
  stamp:
    sec: 4
    nanosec: 428000000
  frame_id: camera
poses:
- position:
    x: -0.27517813965679333
    y: -0.10695047506366921
    z: 4.482887858868945
  orientation:
    x: -0.9202774036256797
    y: -0.049656033679521094
    z: 0.0319496948847555
    w: 0.3867854646854858
---
header:
  stamp:
    sec: 4
    nanosec: 428000000
  frame_id: camera
poses:
- position:
    x: -0.27517813965679333
    y: -0.10695047506366921
    z: 4.482887858868945
  orientation:
    x: -0.9202774036256797
    y: -0.049656033679521094
    z: 0.0319496948847555
    w: 0.3867854646854858
---
header:
  stamp:
    sec: 4
    nanosec: 461000000
  frame_id: camera
poses:
- position:
    x: -0.270571886237954
    y: -0.09380108896167165
    z: 4.3951528978557155
  orientation:
    x: -0.9173988750709624
    y: -0.055103622408191444
    z: 0.015087626482921638
    w: 0.39384674474107306
---
header:
  stamp:
    sec: 4
    nanosec: 461000000
  frame_id: camera
poses:
- position:
    x: -0.270571886237954
    y: -0.09380108896167165
    z: 4.3951528978557155
  orientation:
    x: -0.9173988750709624
    y: -0.055103622408191444
    z: 0.015087626482921638
    w: 0.39384674474107306
---
header:
  stamp:
    sec: 4
    nanosec: 494000000
  frame_id: camera
poses:
- position:
    x: -0.2705633787749495
    y: -0.08117272109344781
    z: 4.395138626307148
  orientation:
    x: -0.9179501454381237
    y: -0.05505273244502451
    z: 0.015284352017086644
    w: 0.3925596970192966
---
header:
  stamp:
    sec: 4
    nanosec: 494000000
  frame_id: camera
poses:
- position:
    x: -0.2705633787749495
    y: -0.08117272109344781
    z: 4.395138626307148
  orientation:
    x: -0.9179501454381237
    y: -0.05505273244502451
    z: 0.015284352017086644
    w: 0.3925596970192966
---
header:
  stamp:
    sec: 4
    nanosec: 527000000
  frame_id: camera
poses:
- position:
    x: -0.2693284227438679
    y: -0.06901848413650871
    z: 4.375079611170488
  orientation:
    x: -0.9233481399483771
    y: -0.060440007476212754
    z: 0.03162423937919397
    w: 0.3778559585792384
---
header:
  stamp:
    sec: 4
    nanosec: 527000000
  frame_id: camera
poses:
- position:
    x: -0.2693284227438679
    y: -0.06901848413650871
    z: 4.375079611170488
  orientation:
    x: -0.9233481399483771
    y: -0.060440007476212754
    z: 0.03162423937919397
    w: 0.3778559585792384
---
header:
  stamp:
    sec: 4
    nanosec: 561000000
  frame_id: camera
poses:
- position:
    x: -0.26505163218169303
    y: -0.055359959549068916
    z: 4.269312209498427
  orientation:
    x: 0.919139704079631
    y: 0.029314622013222325
    z: 0.10026219004887629
    w: 0.37982937033256564
---
header:
  stamp:
    sec: 4
    nanosec: 561000000
  frame_id: camera
poses:
- position:
    x: -0.26505163218169303
    y: -0.055359959549068916
    z: 4.269312209498427
  orientation:
    x: 0.919139704079631
    y: 0.029314622013222325
    z: 0.10026219004887629
    w: 0.37982937033256564
---
header:
  stamp:
    sec: 4
    nanosec: 593000000
  frame_id: camera
poses:
- position:
    x: -0.2672350483841327
    y: -0.044998215428094915
    z: 4.3044147952200404
  orientation:
    x: 0.9227897815483982
    y: 0.01786959687026024
    z: 0.0725618025731167
    w: 0.37798740902957856
---
header:
  stamp:
    sec: 4
    nanosec: 593000000
  frame_id: camera
poses:
- position:
    x: -0.2672350483841327
    y: -0.044998215428094915
    z: 4.3044147952200404
  orientation:
    x: 0.9227897815483982
    y: 0.01786959687026024
    z: 0.0725618025731167
    w: 0.37798740902957856
---
header:
  stamp:
    sec: 4
    nanosec: 626000000
  frame_id: camera
poses:
- position:
    x: -0.27354604697219254
    y: -0.03223868393263428
    z: 4.39274494921608
  orientation:
    x: -0.9321474057770069
    y: -0.0534938717889929
    z: 0.019142218151677038
    w: 0.3575936172087703
---
header:
  stamp:
    sec: 4
    nanosec: 626000000
  frame_id: camera
poses:
- position:
    x: -0.27354604697219254
    y: -0.03223868393263428
    z: 4.39274494921608
  orientation:
    x: -0.9321474057770069
    y: -0.0534938717889929
    z: 0.019142218151677038
    w: 0.3575936172087703
---
header:
  stamp:
    sec: 4
    nanosec: 659000000
  frame_id: camera
poses:
- position:
    x: -0.2735346950931385
    y: -0.01962468754310875
    z: 4.392726204864663
  orientation:
    x: -0.9326352085563111
    y: -0.05343317701863021
    z: 0.01934757925734973
    w: 0.35631746313042584
---
header:
  stamp:
    sec: 4
    nanosec: 692000000
  frame_id: camera
poses:
- position:
    x: -0.26344741909856406
    y: -0.006703642400596782
    z: 4.206631421094717
  orientation:
    x: -0.924714267998889
    y: -0.05268411306634607
    z: 0.014927549914296503
    w: 0.3767029002320631
---
header:
  stamp:
    sec: 4
    nanosec: 692000000
  frame_id: camera
poses:
- position:
    x: -0.26344741909856406
    y: -0.006703642400596782
    z: 4.206631421094717
  orientation:
    x: -0.924714267998889
    y: -0.05268411306634607
    z: 0.014927549914296503
    w: 0.3767029002320631
---
header:
  stamp:
    sec: 4
    nanosec: 725000000
  frame_id: camera
poses:
- position:
    x: -0.26228917805860286
    y: 0.0045976245168477805
    z: 4.188173104320709
  orientation:
    x: -0.9297306734153852
    y: -0.05768352240680896
    z: 0.030957818981766125
    w: 0.36237425349658847
---
header:
  stamp:
    sec: 4
    nanosec: 725000000
  frame_id: camera
poses:
- position:
    x: -0.26228917805860286
    y: 0.0045976245168477805
    z: 4.188173104320709
  orientation:
    x: -0.9297306734153852
    y: -0.05768352240680896
    z: 0.030957818981766125
    w: 0.36237425349658847
---
header:
  stamp:
    sec: 4
    nanosec: 758000000
  frame_id: camera
poses:
- position:
    x: -0.2676123524798989
    y: 0.01662985891490209
    z: 4.262181441017466
  orientation:
    x: 0.9265737403858261
    y: 0.030150367396764854
    z: 0.10702309827416573
    w: 0.35930226190362086
---
header:
  stamp:
    sec: 4
    nanosec: 758000000
  frame_id: camera
poses:
- position:
    x: -0.2676123524798989
    y: 0.01662985891490209
    z: 4.262181441017466
  orientation:
    x: 0.9265737403858261
    y: 0.030150367396764854
    z: 0.10702309827416573
    w: 0.35930226190362086
---
header:
  stamp:
    sec: 4
    nanosec: 795000000
  frame_id: camera
poses:
- position:
    x: -0.2675962824173497
    y: 0.02886228924552914
    z: 4.262116313200269
  orientation:
    x: 0.9260126765863735
    y: 0.030264825450226684
    z: 0.1070859612248801
    w: 0.3607175627140313
---
header:
  stamp:
    sec: 4
    nanosec: 795000000
  frame_id: camera
poses:
- position:
    x: -0.2675962824173497
    y: 0.02886228924552914
    z: 4.262116313200269
  orientation:
    x: 0.9260126765863735
    y: 0.030264825450226684
    z: 0.1070859612248801
    w: 0.3607175627140313
---
header:
  stamp:
    sec: 4
    nanosec: 825000000
  frame_id: camera
poses:
- position:
    x: -0.26527960339788814
    y: 0.04065767790797444
    z: 4.1883556871634315
  orientation:
    x: -0.9312020330964955
    y: -0.05757614587644794
    z: 0.031241634507325144
    w: 0.35856899092960887
---
header:
  stamp:
    sec: 4
    nanosec: 825000000
  frame_id: camera
poses:
- position:
    x: -0.26527960339788814
    y: 0.04065767790797444
    z: 4.1883556871634315
  orientation:
    x: -0.9312020330964955
    y: -0.05757614587644794
    z: 0.031241634507325144
    w: 0.35856899092960887
---
header:
  stamp:
    sec: 4
    nanosec: 860000000
  frame_id: camera
poses:
- position:
    x: -0.2652652809794172
    y: 0.052675115874190104
    z: 4.188330547948441
  orientation:
    x: -0.9316783279361384
    y: -0.05749532315834388
    z: 0.031436599407094395
    w: 0.35732551166514404
---
header:
  stamp:
    sec: 4
    nanosec: 891000000
  frame_id: camera
poses:
- position:
    x: -0.2652507426062797
    y: 0.06469086778592664
    z: 4.188309573741578
  orientation:
    x: -0.9321511224405609
    y: -0.05741389530926949
    z: 0.03162990892681341
    w: 0.3560863356259266
---
header:
  stamp:
    sec: 4
    nanosec: 927000000
  frame_id: camera
poses:
- position:
    x: -0.2661947055966358
    y: 0.07746730654132045
    z: 4.204357362383906
  orientation:
    x: 0.9298768250488184
    y: 0.02977964390722776
    z: 0.07778444130918959
    w: 0.3583180762061904
---
header:
  stamp:
    sec: 4
    nanosec: 927000000
  frame_id: camera
poses:
- position:
    x: -0.2661947055966358
    y: 0.07746730654132045
    z: 4.204357362383906
  orientation:
    x: 0.9298768250488184
    y: 0.02977964390722776
    z: 0.07778444130918959
    w: 0.3583180762061904
---
header:
  stamp:
    sec: 4
    nanosec: 956000000
  frame_id: camera
poses:
- position:
    x: -0.26220723751965697
    y: 0.08890955861297098
    z: 4.106711880000353
  orientation:
    x: 0.9232658443374232
    y: 0.023226589792749663
    z: 0.08949685914403858
    w: 0.3728686342532132
---
header:
  stamp:
    sec: 4
    nanosec: 956000000
  frame_id: camera
poses:
- position:
    x: -0.26220723751965697
    y: 0.08890955861297098
    z: 4.106711880000353
  orientation:
    x: 0.9232658443374232
    y: 0.023226589792749663
    z: 0.08949685914403858
    w: 0.3728686342532132
---
header:
  stamp:
    sec: 4
    nanosec: 989000000
  frame_id: camera
poses:
- position:
    x: -0.26219281969169544
    y: 0.10068627844922322
    z: 4.106715592155351
  orientation:
    x: 0.9226782584469416
    y: 0.023316610432704277
    z: 0.08956701381384052
    w: 0.37429789887697673
---
header:
  stamp:
    sec: 5
    nanosec: 22000000
  frame_id: camera
poses:
- position:
    x: -0.26821646242867253
    y: 0.11574266199269134
    z: 4.1885320407690445
  orientation:
    x: -0.9341415521587886
    y: -0.057193130353519694
    z: 0.03213435251273723
    w: 0.3508217350155513
---
header:
  stamp:
    sec: 5
    nanosec: 22000000
  frame_id: camera
poses:
- position:
    x: -0.26821646242867253
    y: 0.11574266199269134
    z: 4.1885320407690445
  orientation:
    x: -0.9341415521587886
    y: -0.057193130353519694
    z: 0.03213435251273723
    w: 0.3508217350155513
---
header:
  stamp:
    sec: 5
    nanosec: 56000000
  frame_id: camera
poses:
- position:
    x: -0.2678535998024977
    y: 0.12907962836511283
    z: 4.1830888978300615
  orientation:
    x: -0.9452048630985237
    y: -0.05544166751879992
    z: 0.037408434538939626
    w: 0.3195537471271172
---
header:
  stamp:
    sec: 5
    nanosec: 56000000
  frame_id: camera
poses:
- position:
    x: -0.2678535998024977
    y: 0.12907962836511283
    z: 4.1830888978300615
  orientation:
    x: -0.9452048630985237
    y: -0.05544166751879992
    z: 0.037408434538939626
    w: 0.3195537471271172
---
header:
  stamp:
    sec: 5
    nanosec: 92000000
  frame_id: camera
poses:
- position:
    x: -0.25863589819637484
    y: 0.13547618293592656
    z: 4.016870925759175
  orientation:
    x: -0.9380435593395884
    y: -0.05480776065586046
    z: 0.03110049199175966
    w: 0.34073912242546567
---
header:
  stamp:
    sec: 5
    nanosec: 92000000
  frame_id: camera
poses:
- position:
    x: -0.25863589819637484
    y: 0.13547618293592656
    z: 4.016870925759175
  orientation:
    x: -0.9380435593395884
    y: -0.05480776065586046
    z: 0.03110049199175966
    w: 0.34073912242546567
---
header:
  stamp:
    sec: 5
    nanosec: 122000000
  frame_id: camera
poses:
- position:
    x: -0.2636269011201209
    y: 0.14916143584444014
    z: 4.084330199885577
  orientation:
    x: 0.9231118386516907
    y: 0.029499006499648428
    z: 0.10710946534912252
    w: 0.36813299823467893
---
header:
  stamp:
    sec: 5
    nanosec: 122000000
  frame_id: camera
poses:
- position:
    x: -0.2636269011201209
    y: 0.14916143584444014
    z: 4.084330199885577
  orientation:
    x: 0.9231118386516907
    y: 0.029499006499648428
    z: 0.10710946534912252
    w: 0.36813299823467893
---
header:
  stamp:
    sec: 5
    nanosec: 155000000
  frame_id: camera
poses:
- position:
    x: -0.26360472215904873
    y: 0.1637899563222516
    z: 4.084318216304776
  orientation:
    x: 0.922369700926537
    y: 0.029637784492519303
    z: 0.10716287965911522
    w: 0.36996196259376646
---
header:
  stamp:
    sec: 5
    nanosec: 155000000
  frame_id: camera
poses:
- position:
    x: -0.26360472215904873
    y: 0.1637899563222516
    z: 4.084318216304776
  orientation:
    x: 0.922369700926537
    y: 0.029637784492519303
    z: 0.10716287965911522
    w: 0.36996196259376646
---
header:
  stamp:
    sec: 5
    nanosec: 187000000
  frame_id: camera
poses:
- position:
    x: -0.26358683986467285
    y: 0.1754909559534191
    z: 4.084314351703658
  orientation:
    x: 0.9217718946870297
    y: 0.0297486241586557
    z: 0.10720258680152112
    w: 0.37142859193768707
---
header:
  stamp:
    sec: 5
    nanosec: 187000000
  frame_id: camera
poses:
- position:
    x: -0.26358683986467285
    y: 0.1754909559534191
    z: 4.084314351703658
  orientation:
    x: 0.9217718946870297
    y: 0.0297486241586557
    z: 0.10720258680152112
    w: 0.37142859193768707
---
header:
  stamp:
    sec: 5
    nanosec: 254000000
  frame_id: camera
poses:
- position:
    x: -0.2614512147536165
    y: 0.19878167892973794
    z: 4.0172038546998445
  orientation:
    x: -0.9404195480442836
    y: -0.05446932733732229
    z: 0.0317994968449499
    w: 0.33411518677847163
---
header:
  stamp:
    sec: 5
    nanosec: 254000000
  frame_id: camera
poses:
- position:
    x: -0.2614512147536165
    y: 0.19878167892973794
    z: 4.0172038546998445
  orientation:
    x: -0.9404195480442836
    y: -0.05446932733732229
    z: 0.0317994968449499
    w: 0.33411518677847163
---
header:
  stamp:
    sec: 5
    nanosec: 286000000
  frame_id: camera
poses:
- position:
    x: -0.26109732974184763
    y: 0.21144547671225739
    z: 4.012036129398108
  orientation:
    x: -0.9506218135869098
    y: -0.05271066918844319
    z: 0.037018925714796876
    w: 0.30359405795463684
---
header:
  stamp:
    sec: 5
    nanosec: 286000000
  frame_id: camera
poses:
- position:
    x: -0.26109732974184763
    y: 0.21144547671225739
    z: 4.012036129398108
  orientation:
    x: -0.9506218135869098
    y: -0.05271066918844319
    z: 0.037018925714796876
    w: 0.30359405795463684
---
header:
  stamp:
    sec: 5
    nanosec: 322000000
  frame_id: camera
poses:
- position:
    x: -0.2658359700621563
    y: 0.22614876269010484
    z: 4.075119395635409
  orientation:
    x: 0.9296575399052176
    y: 0.030725477670449586
    z: 0.11521178559312882
    w: 0.34859582323909827
---
header:
  stamp:
    sec: 5
    nanosec: 322000000
  frame_id: camera
poses:
- position:
    x: -0.2658359700621563
    y: 0.22614876269010484
    z: 4.075119395635409
  orientation:
    x: 0.9296575399052176
    y: 0.030725477670449586
    z: 0.11521178559312882
    w: 0.34859582323909827
---
header:
  stamp:
    sec: 5
    nanosec: 353000000
  frame_id: camera
poses:
- position:
    x: -0.25716073310015897
    y: 0.23160187838347449
    z: 3.9208988902006623
  orientation:
    x: 0.9213133084851659
    y: 0.028683132996778438
    z: 0.10667769054897411
    w: 0.3727987873219866
---
header:
  stamp:
    sec: 5
    nanosec: 353000000
  frame_id: camera
poses:
- position:
    x: -0.25716073310015897
    y: 0.23160187838347449
    z: 3.9208988902006623
  orientation:
    x: 0.9213133084851659
    y: 0.028683132996778438
    z: 0.10667769054897411
    w: 0.3727987873219866
---
header:
  stamp:
    sec: 5
    nanosec: 387000000
  frame_id: camera
poses:
- position:
    x: -0.2634403997380744
    y: 0.24973701125680942
    z: 4.004756627884918
  orientation:
    x: -0.9610214036708286
    y: -0.050689005497777995
    z: 0.04392527015696526
    w: 0.2682145727767869
---
header:
  stamp:
    sec: 5
    nanosec: 387000000
  frame_id: camera
poses:
- position:
    x: -0.2634403997380744
    y: 0.24973701125680942
    z: 4.004756627884918
  orientation:
    x: -0.9610214036708286
    y: -0.050689005497777995
    z: 0.04392527015696526
    w: 0.2682145727767869
---
header:
  stamp:
    sec: 5
    nanosec: 418000000
  frame_id: camera
poses:
- position:
    x: -0.26391340634441895
    y: 0.26313508154461873
    z: 4.012374088600193
  orientation:
    x: -0.9522777516907714
    y: -0.052396591644566504
    z: 0.03751756365693187
    w: 0.2983523307032312
---
header:
  stamp:
    sec: 5
    nanosec: 418000000
  frame_id: camera
poses:
- position:
    x: -0.26391340634441895
    y: 0.26313508154461873
    z: 4.012374088600193
  orientation:
    x: -0.9522777516907714
    y: -0.052396591644566504
    z: 0.03751756365693187
    w: 0.2983523307032312
---
header:
  stamp:
    sec: 5
    nanosec: 452000000
  frame_id: camera
poses:
- position:
    x: -0.25859727474584115
    y: 0.2702654202658152
    z: 3.922369018234363
  orientation:
    x: 0.9263459164200818
    y: 0.044835301957734164
    z: 0.09556200068016141
    w: 0.3615811704945413
---
header:
  stamp:
    sec: 5
    nanosec: 452000000
  frame_id: camera
poses:
- position:
    x: -0.25859727474584115
    y: 0.2702654202658152
    z: 3.922369018234363
  orientation:
    x: 0.9263459164200818
    y: 0.044835301957734164
    z: 0.09556200068016141
    w: 0.3615811704945413
---
header:
  stamp:
    sec: 5
    nanosec: 487000000
  frame_id: camera
poses:
- position:
    x: -0.25487023292629796
    y: 0.27897869643732315
    z: 3.854572547702139
  orientation:
    x: -0.9552450067462628
    y: -0.05022585397723106
    z: 0.03651205871994853
    w: 0.28922518950918064
---
header:
  stamp:
    sec: 5
    nanosec: 487000000
  frame_id: camera
poses:
- position:
    x: -0.25487023292629796
    y: 0.27897869643732315
    z: 3.854572547702139
  orientation:
    x: -0.9552450067462628
    y: -0.05022585397723106
    z: 0.03651205871994853
    w: 0.28922518950918064
---
header:
  stamp:
    sec: 5
    nanosec: 517000000
  frame_id: camera
poses:
- position:
    x: -0.25379545857682023
    y: 0.2908625604190965
    z: 3.8386181378633126
  orientation:
    x: -0.9497463289107345
    y: -0.055568578962472526
    z: 0.04811702721421688
    w: 0.3042676378531582
---
header:
  stamp:
    sec: 5
    nanosec: 517000000
  frame_id: camera
poses:
- position:
    x: -0.25379545857682023
    y: 0.2908625604190965
    z: 3.8386181378633126
  orientation:
    x: -0.9497463289107345
    y: -0.055568578962472526
    z: 0.04811702721421688
    w: 0.3042676378531582
---
header:
  stamp:
    sec: 5
    nanosec: 550000000
  frame_id: camera
poses:
- position:
    x: -0.25927061074225244
    y: 0.3080427703357923
    z: 3.9124922566522904
  orientation:
    x: 0.9274001062106261
    y: 0.03001200563571499
    z: 0.11456528361604637
    w: 0.35482829412015104
---
header:
  stamp:
    sec: 5
    nanosec: 550000000
  frame_id: camera
poses:
- position:
    x: -0.25927061074225244
    y: 0.3080427703357923
    z: 3.9124922566522904
  orientation:
    x: 0.9274001062106261
    y: 0.03001200563571499
    z: 0.11456528361604637
    w: 0.35482829412015104
---
header:
  stamp:
    sec: 5
    nanosec: 583000000
  frame_id: camera
poses:
- position:
    x: -0.2575877604303821
    y: 0.31757440176543394
    z: 3.854944136968592
  orientation:
    x: -0.9564348577476537
    y: -0.0500035202449039
    z: 0.03680590200881336
    w: 0.28526713169529483
---
header:
  stamp:
    sec: 5
    nanosec: 583000000
  frame_id: camera
poses:
- position:
    x: -0.2575877604303821
    y: 0.31757440176543394
    z: 3.854944136968592
  orientation:
    x: -0.9564348577476537
    y: -0.0500035202449039
    z: 0.03680590200881336
    w: 0.28526713169529483
---
header:
  stamp:
    sec: 5
    nanosec: 616000000
  frame_id: camera
poses:
- position:
    x: -0.2575636071656303
    y: 0.331351386757555
    z: 3.855014824982174
  orientation:
    x: -0.9568450981135802
    y: -0.04988191348933746
    z: 0.037001311931310295
    w: 0.28388405351131846
---
header:
  stamp:
    sec: 5
    nanosec: 616000000
  frame_id: camera
poses:
- position:
    x: -0.2575636071656303
    y: 0.331351386757555
    z: 3.855014824982174
  orientation:
    x: -0.9568450981135802
    y: -0.04988191348933746
    z: 0.037001311931310295
    w: 0.28388405351131846
---
header:
  stamp:
    sec: 5
    nanosec: 649000000
  frame_id: camera
poses:
- position:
    x: -0.25583410811016
    y: 0.3419717223148694
    z: 3.830820425163912
  orientation:
    x: 0.9261735757653471
    y: 0.039888224781701676
    z: 0.11381752584765308
    w: 0.3572912088027273
---
header:
  stamp:
    sec: 5
    nanosec: 649000000
  frame_id: camera
poses:
- position:
    x: -0.25583410811016
    y: 0.3419717223148694
    z: 3.830820425163912
  orientation:
    x: 0.9261735757653471
    y: 0.039888224781701676
    z: 0.11381752584765308
    w: 0.3572912088027273
---
header:
  stamp:
    sec: 5
    nanosec: 682000000
  frame_id: camera
poses:
- position:
    x: -0.2514788225360034
    y: 0.34801460723951316
    z: 3.7559068131730955
  orientation:
    x: 0.9159075478671557
    y: 0.04862731517306079
    z: 0.10513454786770803
    w: 0.38431168967868545
---
header:
  stamp:
    sec: 5
    nanosec: 682000000
  frame_id: camera
poses:
- position:
    x: -0.2514788225360034
    y: 0.34801460723951316
    z: 3.7559068131730955
  orientation:
    x: 0.9159075478671557
    y: 0.04862731517306079
    z: 0.10513454786770803
    w: 0.38431168967868545
---
header:
  stamp:
    sec: 5
    nanosec: 715000000
  frame_id: camera
poses:
- position:
    x: -0.25323831144430103
    y: 0.3620548424366772
    z: 3.762478181359044
  orientation:
    x: 0.9260551824724153
    y: 0.029160763908955223
    z: 0.11392324260686801
    w: 0.3585985829003856
---
header:
  stamp:
    sec: 5
    nanosec: 715000000
  frame_id: camera
poses:
- position:
    x: -0.25323831144430103
    y: 0.3620548424366772
    z: 3.762478181359044
  orientation:
    x: 0.9260551824724153
    y: 0.029160763908955223
    z: 0.11392324260686801
    w: 0.3585985829003856
---
header:
  stamp:
    sec: 5
    nanosec: 749000000
  frame_id: camera
poses:
- position:
    x: -0.25976813938124704
    y: 0.3843483102532987
    z: 3.8483341573277134
  orientation:
    x: -0.9665627103329167
    y: -0.0476223978207293
    z: 0.04393361082155765
    w: 0.24810979839552905
---
header:
  stamp:
    sec: 5
    nanosec: 749000000
  frame_id: camera
poses:
- position:
    x: -0.25976813938124704
    y: 0.3843483102532987
    z: 3.8483341573277134
  orientation:
    x: -0.9665627103329167
    y: -0.0476223978207293
    z: 0.04393361082155765
    w: 0.24810979839552905
---
header:
  stamp:
    sec: 5
    nanosec: 781000000
  frame_id: camera
poses:
- position:
    x: -0.25974270860044746
    y: 0.39809061215211283
    z: 3.848429202353501
  orientation:
    x: -0.9668961726056586
    y: -0.047487742285023504
    z: 0.04410467880251213
    w: 0.24680251830345448
---
header:
  stamp:
    sec: 5
    nanosec: 781000000
  frame_id: camera
poses:
- position:
    x: -0.25974270860044746
    y: 0.39809061215211283
    z: 3.848429202353501
  orientation:
    x: -0.9668961726056586
    y: -0.047487742285023504
    z: 0.04410467880251213
    w: 0.24680251830345448
---
header:
  stamp:
    sec: 5
    nanosec: 814000000
  frame_id: camera
poses:
- position:
    x: -0.2516765888498652
    y: 0.3969883496444065
    z: 3.709703429311822
  orientation:
    x: -0.9610398530510477
    y: -0.047502559874777306
    z: 0.03652307408854988
    w: 0.2698369372641303
---
header:
  stamp:
    sec: 5
    nanosec: 847000000
  frame_id: camera
poses:
- position:
    x: -0.24899799114107005
    y: 0.4071952941651124
    z: 3.6704967715689025
  orientation:
    x: -0.9581553420211266
    y: -0.05571225136001701
    z: 0.06398771274699118
    w: 0.27338628023766043
---
header:
  stamp:
    sec: 5
    nanosec: 847000000
  frame_id: camera
poses:
- position:
    x: -0.24899799114107005
    y: 0.4071952941651124
    z: 3.6704967715689025
  orientation:
    x: -0.9581553420211266
    y: -0.05571225136001701
    z: 0.06398771274699118
    w: 0.27338628023766043
---
header:
  stamp:
    sec: 5
    nanosec: 880000000
  frame_id: camera
poses:
- position:
    x: -0.2538446849542118
    y: 0.42659865984338163
    z: 3.7341499152862543
  orientation:
    x: 0.9236225245706583
    y: 0.03578739420822624
    z: 0.13182305914819348
    w: 0.3581387658412878
---
header:
  stamp:
    sec: 5
    nanosec: 880000000
  frame_id: camera
poses:
- position:
    x: -0.2538446849542118
    y: 0.42659865984338163
    z: 3.7341499152862543
  orientation:
    x: 0.9236225245706583
    y: 0.03578739420822624
    z: 0.13182305914819348
    w: 0.3581387658412878
---
header:
  stamp:
    sec: 5
    nanosec: 913000000
  frame_id: camera
poses:
- position:
    x: -0.25736398293668983
    y: 0.44370358117373404
    z: 3.7663591490674544
  orientation:
    x: 0.9286816518012978
    y: 0.04469723619420779
    z: 0.1024658283164541
    w: 0.35362876114880043
---
header:
  stamp:
    sec: 5
    nanosec: 913000000
  frame_id: camera
poses:
- position:
    x: -0.25736398293668983
    y: 0.44370358117373404
    z: 3.7663591490674544
  orientation:
    x: 0.9286816518012978
    y: 0.04469723619420779
    z: 0.1024658283164541
    w: 0.35362876114880043
---
header:
  stamp:
    sec: 5
    nanosec: 946000000
  frame_id: camera
poses:
- position:
    x: -0.25379035902732827
    y: 0.4504579211789393
    z: 3.7035649146027048
  orientation:
    x: -0.9700045660024936
    y: -0.04520377248697824
    z: 0.04327374454090994
    w: 0.2348938992836286
---
header:
  stamp:
    sec: 5
    nanosec: 946000000
  frame_id: camera
poses:
- position:
    x: -0.25379035902732827
    y: 0.4504579211789393
    z: 3.7035649146027048
  orientation:
    x: -0.9700045660024936
    y: -0.04520377248697824
    z: 0.04327374454090994
    w: 0.2348938992836286
---
header:
  stamp:
    sec: 5
    nanosec: 979000000
  frame_id: camera
poses:
- position:
    x: -0.2507467220008532
    y: 0.45943736855685374
    z: 3.6594351125516047
  orientation:
    x: -0.9665467172764872
    y: -0.05301707759339952
    z: 0.07223287608252023
    w: 0.24033111412871458
---
header:
  stamp:
    sec: 5
    nanosec: 979000000
  frame_id: camera
poses:
- position:
    x: -0.2507467220008532
    y: 0.45943736855685374
    z: 3.6594351125516047
  orientation:
    x: -0.9665467172764872
    y: -0.05301707759339952
    z: 0.07223287608252023
    w: 0.24033111412871458
---
header:
  stamp:
    sec: 6
    nanosec: 12000000
  frame_id: camera
poses:
- position:
    x: -0.24797377356083664
    y: 0.46599732337634553
    z: 3.611629904595378
  orientation:
    x: 0.920286863160296
    y: 0.04814162223134699
    z: 0.11154965726110327
    w: 0.3719020673086496
---
header:
  stamp:
    sec: 6
    nanosec: 12000000
  frame_id: camera
poses:
- position:
    x: -0.24797377356083664
    y: 0.46599732337634553
    z: 3.611629904595378
  orientation:
    x: 0.920286863160296
    y: 0.04814162223134699
    z: 0.11154965726110327
    w: 0.3719020673086496
---
header:
  stamp:
    sec: 6
    nanosec: 45000000
  frame_id: camera
poses:
- position:
    x: -0.2545247532158665
    y: 0.4898188455731625
    z: 3.677211234789625
  orientation:
    x: -0.9725327763996011
    y: -0.04763676830537725
    z: 0.06288693449570687
    w: 0.21898851705885355
---
header:
  stamp:
    sec: 6
    nanosec: 45000000
  frame_id: camera
poses:
- position:
    x: -0.2545247532158665
    y: 0.4898188455731625
    z: 3.677211234789625
  orientation:
    x: -0.9725327763996011
    y: -0.04763676830537725
    z: 0.06288693449570687
    w: 0.21898851705885355
---
header:
  stamp:
    sec: 6
    nanosec: 79000000
  frame_id: camera
poses:
- position:
    x: -0.25450133660730256
    y: 0.5029372081541743
    z: 3.6773844050126216
  orientation:
    x: -0.9728060044514782
    y: -0.04747051037838418
    z: 0.06298394344279591
    w: 0.217779822793483
---
header:
  stamp:
    sec: 6
    nanosec: 79000000
  frame_id: camera
poses:
- position:
    x: -0.25450133660730256
    y: 0.5029372081541743
    z: 3.6773844050126216
  orientation:
    x: -0.9728060044514782
    y: -0.04747051037838418
    z: 0.06298394344279591
    w: 0.217779822793483
---
header:
  stamp:
    sec: 6
    nanosec: 111000000
  frame_id: camera
poses:
- position:
    x: -0.24977488163107006
    y: 0.5070742184842453
    z: 3.60196277014571
  orientation:
    x: 0.9273911955175471
    y: 0.04931917387819745
    z: 0.12031857624184536
    w: 0.3507657762320063
---
header:
  stamp:
    sec: 6
    nanosec: 111000000
  frame_id: camera
poses:
- position:
    x: -0.24977488163107006
    y: 0.5070742184842453
    z: 3.60196277014571
  orientation:
    x: 0.9273911955175471
    y: 0.04931917387819745
    z: 0.12031857624184536
    w: 0.3507657762320063
---
header:
  stamp:
    sec: 6
    nanosec: 144000000
  frame_id: camera
poses:
- position:
    x: -0.24975297359843904
    y: 0.5199230128049158
    z: 3.6021586549019924
  orientation:
    x: 0.9266056082615067
    y: 0.04944724854749766
    z: 0.12018835478019027
    w: 0.35286226168951
---
header:
  stamp:
    sec: 6
    nanosec: 144000000
  frame_id: camera
poses:
- position:
    x: -0.24975297359843904
    y: 0.5199230128049158
    z: 3.6021586549019924
  orientation:
    x: 0.9266056082615067
    y: 0.04944724854749766
    z: 0.12018835478019027
    w: 0.35286226168951
---
header:
  stamp:
    sec: 6
    nanosec: 176000000
  frame_id: camera
poses:
- position:
    x: -0.2496632749331148
    y: 0.5318233446709588
    z: 3.5830352780638024
  orientation:
    x: 0.9271976615987308
    y: 0.03671147315170897
    z: 0.14093592646508415
    w: 0.34509973731706167
---
header:
  stamp:
    sec: 6
    nanosec: 176000000
  frame_id: camera
poses:
- position:
    x: -0.2496632749331148
    y: 0.5318233446709588
    z: 3.5830352780638024
  orientation:
    x: 0.9271976615987308
    y: 0.03671147315170897
    z: 0.14093592646508415
    w: 0.34509973731706167
---
header:
  stamp:
    sec: 6
    nanosec: 210000000
  frame_id: camera
poses:
- position:
    x: -0.2522947516059223
    y: 0.5481930626795625
    z: 3.60268559400162
  orientation:
    x: 0.9248049618163146
    y: 0.04963542256700937
    z: 0.12033480250141804
    w: 0.35747956967281924
---
header:
  stamp:
    sec: 6
    nanosec: 243000000
  frame_id: camera
poses:
- position:
    x: -0.24898665407085724
    y: 0.5542671322647719
    z: 3.545365120466159
  orientation:
    x: -0.9754552049519818
    y: -0.04498829431457277
    z: 0.06155367865401019
    w: 0.2065776879309847
---
header:
  stamp:
    sec: 6
    nanosec: 243000000
  frame_id: camera
poses:
- position:
    x: -0.24898665407085724
    y: 0.5542671322647719
    z: 3.545365120466159
  orientation:
    x: -0.9754552049519818
    y: -0.04498829431457277
    z: 0.06155367865401019
    w: 0.2065776879309847
---
header:
  stamp:
    sec: 6
    nanosec: 276000000
  frame_id: camera
poses:
- position:
    x: -0.24682456220080357
    y: 0.5638897129741822
    z: 3.5149972141387367
  orientation:
    x: -0.9763357805263991
    y: -0.047190506623324774
    z: 0.08026849813957687
    w: 0.19518828846771966
---
header:
  stamp:
    sec: 6
    nanosec: 276000000
  frame_id: camera
poses:
- position:
    x: -0.24682456220080357
    y: 0.5638897129741822
    z: 3.5149972141387367
  orientation:
    x: -0.9763357805263991
    y: -0.047190506623324774
    z: 0.08026849813957687
    w: 0.19518828846771966
---
header:
  stamp:
    sec: 6
    nanosec: 309000000
  frame_id: camera
poses:
- position:
    x: -0.24519793849646299
    y: 0.5724395130135476
    z: 3.4852351194470237
  orientation:
    x: 0.9141959676557406
    y: 0.047142589992187955
    z: 0.11060211078475918
    w: 0.38702775355362856
---
header:
  stamp:
    sec: 6
    nanosec: 309000000
  frame_id: camera
poses:
- position:
    x: -0.24519793849646299
    y: 0.5724395130135476
    z: 3.4852351194470237
  orientation:
    x: 0.9141959676557406
    y: 0.047142589992187955
    z: 0.11060211078475918
    w: 0.38702775355362856
---
header:
  stamp:
    sec: 6
    nanosec: 342000000
  frame_id: camera
poses:
- position:
    x: -0.24774669379445105
    y: 0.5907905202053372
    z: 3.513273611692755
  orientation:
    x: 0.9232541685579148
    y: 0.045935626000670915
    z: 0.13886198594556587
    w: 0.3552590707689442
---
header:
  stamp:
    sec: 6
    nanosec: 342000000
  frame_id: camera
poses:
- position:
    x: -0.24774669379445105
    y: 0.5907905202053372
    z: 3.513273611692755
  orientation:
    x: 0.9232541685579148
    y: 0.045935626000670915
    z: 0.13886198594556587
    w: 0.3552590707689442
---
header:
  stamp:
    sec: 6
    nanosec: 375000000
  frame_id: camera
poses:
- position:
    x: -0.24928928952767665
    y: 0.606533937671301
    z: 3.515993900356752
  orientation:
    x: -0.977141441452737
    y: -0.046629645256308194
    z: 0.08011100872046024
    w: 0.1913178137569229
---
header:
  stamp:
    sec: 6
    nanosec: 375000000
  frame_id: camera
poses:
- position:
    x: -0.24928928952767665
    y: 0.606533937671301
    z: 3.515993900356752
  orientation:
    x: -0.977141441452737
    y: -0.046629645256308194
    z: 0.08011100872046024
    w: 0.1913178137569229
---
header:
  stamp:
    sec: 6
    nanosec: 408000000
  frame_id: camera
poses:
- position:
    x: -0.24804476357314043
    y: 0.6163559094216009
    z: 3.4919651712431063
  orientation:
    x: 0.9293709066251322
    y: 0.043579893823591676
    z: 0.10958537264944226
    w: 0.3498021681956631
---
header:
  stamp:
    sec: 6
    nanosec: 408000000
  frame_id: camera
poses:
- position:
    x: -0.24804476357314043
    y: 0.6163559094216009
    z: 3.4919651712431063
  orientation:
    x: 0.9293709066251322
    y: 0.043579893823591676
    z: 0.10958537264944226
    w: 0.3498021681956631
---
header:
  stamp:
    sec: 6
    nanosec: 441000000
  frame_id: camera
poses:
- position:
    x: -0.245967790335505
    y: 0.6254812534882908
    z: 3.463500226714457
  orientation:
    x: 0.9295130073696282
    y: 0.04983291829018044
    z: 0.12907806920541431
    w: 0.3418495304012514
---
header:
  stamp:
    sec: 6
    nanosec: 441000000
  frame_id: camera
poses:
- position:
    x: -0.245967790335505
    y: 0.6254812534882908
    z: 3.463500226714457
  orientation:
    x: 0.9295130073696282
    y: 0.04983291829018044
    z: 0.12907806920541431
    w: 0.3418495304012514
---
header:
  stamp:
    sec: 6
    nanosec: 475000000
  frame_id: camera
poses:
- position:
    x: -0.24440745451279736
    y: 0.6331234880256897
    z: 3.425033867519797
  orientation:
    x: 0.9208820453763251
    y: 0.042715847834196075
    z: 0.15728736352193498
    w: 0.35413599100294824
---
header:
  stamp:
    sec: 6
    nanosec: 475000000
  frame_id: camera
poses:
- position:
    x: -0.24440745451279736
    y: 0.6331234880256897
    z: 3.425033867519797
  orientation:
    x: 0.9208820453763251
    y: 0.042715847834196075
    z: 0.15728736352193498
    w: 0.35413599100294824
---
header:
  stamp:
    sec: 6
    nanosec: 507000000
  frame_id: camera
poses:
- position:
    x: -0.24841326898888558
    y: 0.6551330184363937
    z: 3.4642528762265568
  orientation:
    x: 0.9275539351097584
    y: 0.050054323734454675
    z: 0.12901938857875872
    w: 0.34711994974165883
---
header:
  stamp:
    sec: 6
    nanosec: 507000000
  frame_id: camera
poses:
- position:
    x: -0.24841326898888558
    y: 0.6551330184363937
    z: 3.4642528762265568
  orientation:
    x: 0.9275539351097584
    y: 0.050054323734454675
    z: 0.12901938857875872
    w: 0.34711994974165883
---
header:
