transforms:
- header:
    stamp:
      sec: 0
      nanosec: 100000000
    frame_id: /odom
  child_frame_id: base_link
  transform:
    translation:
      x: 1.457732740556232e-15
      y: -6.474749303182906e-36
      z: 0.0
    rotation:
      x: 0.0
      y: 0.0
      z: -3.749778623042036e-21
      w: 1.0
---
transforms:
- header:
    stamp:
      sec: 0
      nanosec: 200000000
    frame_id: /odom
  child_frame_id: base_link
  transform:
    translation:
      x: 0.011394352758557007
      y: 0.00031069972554355216
      z: 0.0
    rotation:
      x: 0.0
      y: 0.0
      z: 0.02725773794840711
      w: 0.9996284388321173
---
transforms:
- header:
    stamp:
      sec: 0
      nanosec: 300000000
    frame_id: /odom
  child_frame_id: base_link
  transform:
    translation:
      x: 0.03128210769295059
      y: 0.00235332382066914
      z: 0.0
    rotation:
      x: 0.0
      y: 0.0
      z: 0.0750170915935767
      w: 0.9971822481215964
---
transforms:
- header:
    stamp:
      sec: 0
      nanosec: 400000000
    frame_id: /odom
  child_frame_id: base_link
  transform:
    translation:
      x: 0.05087900942401548
      y: 0.00630700373185103
      z: 0.0
    rotation:
      x: 0.0
      y: 0.0
      z: 0.1243557837833391
      w: 0.992237692813386
---
transforms:
- header:
    stamp:
      sec: 0
      nanosec: 500000000
    frame_id: /odom
  child_frame_id: base_link
  transform:
    translation:
      x: 0.06997316756273421
      y: 0.01222814437014508
      z: 0.0
    rotation:
      x: 0.0
      y: 0.0
      z: 0.1751886273921837
      w: 0.9845348875649064
---
transforms:
- header:
    stamp:
      sec: 0
      nanosec: 600000000
    frame_id: /odom
  child_frame_id: base_link
  transform:
    translation:
      x: 0.08835731360919921
      y: 0.020081143354073627
      z: 0.0
    rotation:
      x: 0.0
      y: 0.0
      z: 0.22564265877477224
      w: 0.9742101367472276
---
transforms:
- header:
    stamp:
      sec: 0
      nanosec: 700000000
    frame_id: /odom
  child_frame_id: base_link
  transform:
    translation:
      x: 0.10577297188392629
      y: 0.02989153541881686
      z: 0.0
    rotation:
      x: 0.0
      y: 0.0
      z: 0.2817289370278889
      w: 0.9594940364802357
---
transforms:
- header:
    stamp:
      sec: 0
      nanosec: 800000000
    frame_id: /odom
  child_frame_id: base_link
  transform:
    translation:
      x: 0.12189323900285899
      y: 0.041706807454068635
      z: 0.0
    rotation:
      x: 0.0
      y: 0.0
      z: 0.3414926248576174
      w: 0.9398844541579857
---
transforms:
- header:
    stamp:
      sec: 0
      nanosec: 900000000
    frame_id: /odom
  child_frame_id: base_link
  transform:
    translation:
      x: 0.13634073925757234
      y: 0.05551576855611975
      z: 0.0
    rotation:
      x: 0.0
      y: 0.0
      z: 0.4027642984349917
      w: 0.9153037309582918
---
transforms:
- header:
    stamp:
      sec: 1
      nanosec: 0
    frame_id: /odom
  child_frame_id: base_link
  transform:
    translation:
      x: 0.1487771007833735
      y: 0.07115732725442449
      z: 0.0
    rotation:
      x: 0.0
      y: 0.0
      z: 0.46653589809336593
      w: 0.8845022644347591
---
transforms:
- header:
    stamp:
      sec: 1
      nanosec: 100000000
    frame_id: /odom
  child_frame_id: base_link
  transform:
    translation:
      x: 0.15879846472587783
      y: 0.08844333095140702
      z: 0.0
    rotation:
      x: 0.0
      y: 0.0
      z: 0.5318464690295478
      w: 0.8468407957702571
---
transforms:
- header:
    stamp:
      sec: 1
      nanosec: 200000000
    frame_id: /odom
  child_frame_id: base_link
  transform:
    translation:
      x: 0.16605096013672696
      y: 0.10706011581721393
      z: 0.0
    rotation:
      x: 0.0
      y: 0.0
      z: 0.5962861139846083
      w: 0.802771991457808
---
transforms:
- header:
    stamp:
      sec: 1
      nanosec: 300000000
    frame_id: /odom
  child_frame_id: base_link
  transform:
    translation:
      x: 0.17030508382534645
      y: 0.12658142648934767
      z: 0.0
    rotation:
      x: 0.0
      y: 0.0
      z: 0.6573992164494243
      w: 0.7535424806948066
---
transforms:
- header:
    stamp:
      sec: 1
      nanosec: 400000000
    frame_id: /odom
  child_frame_id: base_link
  transform:
    translation:
      x: 0.17120132937071722
      y: 0.1465332954290732
      z: 0.0
    rotation:
      x: 0.0
      y: 0.0
      z: 0.7234612666322973
      w: 0.6903649728098842
---
transforms:
- header:
    stamp:
      sec: 1
      nanosec: 500000000
    frame_id: /odom
  child_frame_id: base_link
  transform:
    translation:
      x: 0.1683949732024363
      y: 0.16630513104044636
      z: 0.0
    rotation:
      x: 0.0
      y: 0.0
      z: 0.7854313240034431
      w: 0.6189488147449663
---
transforms:
- header:
    stamp:
      sec: 1
      nanosec: 600000000
    frame_id: /odom
  child_frame_id: base_link
  transform:
    translation:
      x: 0.1618419582867349
      y: 0.1851661674483914
      z: 0.0
    rotation:
      x: 0.0
      y: 0.0
      z: 0.8428070979880122
      w: 0.5382157518886131
---
transforms:
- header:
    stamp:
      sec: 1
      nanosec: 700000000
    frame_id: /odom
  child_frame_id: base_link
  transform:
    translation:
      x: 0.15149139541929016
      y: 0.2022275919676286
      z: 0.0
    rotation:
      x: 0.0
      y: 0.0
      z: 0.8984656690312589
      w: 0.4390437809287502
---
transforms:
- header:
    stamp:
      sec: 1
      nanosec: 800000000
    frame_id: /odom
  child_frame_id: base_link
  transform:
    translation:
      x: 0.13740254183412914
      y: 0.21635085174610352
      z: 0.0
    rotation:
      x: 0.0
      y: 0.0
      z: 0.945605572084534
      w: 0.3253153885734294
---
transforms:
- header:
    stamp:
      sec: 1
      nanosec: 900000000
    frame_id: /odom
  child_frame_id: base_link
  transform:
    translation:
      x: 0.12024216122514317
      y: 0.2265137319316679
      z: 0.0
    rotation:
      x: 0.0
      y: 0.0
      z: 0.9796105533254337
      w: 0.20090585808641234
---
transforms:
- header:
    stamp:
      sec: 2
      nanosec: 0
    frame_id: /odom
  child_frame_id: base_link
  transform:
    translation:
      x: 0.10102361007181483
      y: 0.2318152859934831
      z: 0.0
    rotation:
      x: 0.0
      y: 0.0
      z: 0.9978927412693781
      w: 0.06488510554731347
---
transforms:
- header:
    stamp:
      sec: 2
      nanosec: 100000000
    frame_id: /odom
  child_frame_id: base_link
  transform:
    translation:
      x: 0.0810969633295099
      y: 0.23151087900828496
      z: 0.0
    rotation:
      x: -0.0
      y: 0.0
      z: 0.9967448104758856
      w: -0.08062123038871911
---
transforms:
- header:
    stamp:
      sec: 2
      nanosec: 200000000
    frame_id: /odom
  child_frame_id: base_link
  transform:
    translation:
      x: 0.06119541774476959
      y: 0.2306000514278653
      z: 0.0
    rotation:
      x: 0.0
      y: 0.0
      z: 0.9985046825182935
      w: 0.05466625091445259
---
transforms:
- header:
    stamp:
      sec: 2
      nanosec: 300000000
    frame_id: /odom
  child_frame_id: base_link
  transform:
    translation:
      x: 0.04192997188328163
      y: 0.23569333864215422
      z: 0.0
    rotation:
      x: 0.0
      y: 0.0
      z: 0.9794615612804017
      w: 0.20163097473889738
---
transforms:
- header:
    stamp:
      sec: 2
      nanosec: 400000000
    frame_id: /odom
  child_frame_id: base_link
  transform:
    translation:
      x: 0.02497786188056477
      y: 0.24616878810359438
      z: 0.0
    rotation:
      x: 0.0
      y: 0.0
      z: 0.9392062201149206
      w: 0.34335357300812164
---
transforms:
- header:
    stamp:
      sec: 2
      nanosec: 500000000
    frame_id: /odom
  child_frame_id: base_link
  transform:
    translation:
      x: 0.008983617473825018
      y: 0.2580737309041362
      z: 0.0
    rotation:
      x: 0.0
      y: 0.0
      z: 0.969740811097109
      w: 0.24413676350095517
---
transforms:
- header:
    stamp:
      sec: 2
      nanosec: 600000000
    frame_id: /odom
  child_frame_id: base_link
  transform:
    translation:
      x: -0.009808114331394108
      y: 0.2646824161811961
      z: 0.0
    rotation:
      x: 0.0
      y: 0.0
      z: 0.9958122972040837
      w: 0.09142138008762296
---
transforms:
- header:
    stamp:
      sec: 2
      nanosec: 700000000
    frame_id: /odom
  child_frame_id: base_link
  transform:
    translation:
      x: -0.029719826997596382
      y: 0.2652268962851544
      z: 0.0
    rotation:
      x: -0.0
      y: 0.0
      z: 0.997936836979166
      w: -0.0642033441497998
---
transforms:
- header:
    stamp:
      sec: 2
      nanosec: 800000000
    frame_id: /odom
  child_frame_id: base_link
  transform:
    translation:
      x: -0.049651675326011745
      y: 0.2651781992469535
      z: 0.0
    rotation:
      x: 0.0
      y: 0.0
      z: 0.9975142065221004
      w: 0.0704656496924876
---
transforms:
- header:
    stamp:
      sec: 2
      nanosec: 900000000
    frame_id: /odom
  child_frame_id: base_link
  transform:
    translation:
      x: -0.068798588621198
      y: 0.27072436692756263
      z: 0.0
    rotation:
      x: 0.0
      y: 0.0
      z: 0.9777454983418189
      w: 0.20979451964316967
---
transforms:
- header:
    stamp:
      sec: 3
      nanosec: 0
    frame_id: /odom
  child_frame_id: base_link
  transform:
    translation:
      x: -0.08555388518678893
      y: 0.2815073018552355
      z: 0.0
    rotation:
      x: 0.0
      y: 0.0
      z: 0.9355781591723573
      w: 0.3531196795417431
---
transforms:
- header:
    stamp:
      sec: 3
      nanosec: 100000000
    frame_id: /odom
  child_frame_id: base_link
  transform:
    translation:
      x: -0.09828419310098069
      y: 0.29682724570459557
      z: 0.0
    rotation:
      x: 0.0
      y: 0.0
      z: 0.8694094066423395
      w: 0.4940923837116043
---
transforms:
- header:
    stamp:
      sec: 3
      nanosec: 200000000
    frame_id: /odom
  child_frame_id: base_link
  transform:
    translation:
      x: -0.11032310583012223
      y: 0.31271184956561443
      z: 0.0
    rotation:
      x: 0.0
      y: 0.0
      z: 0.9255193002795967
      w: 0.37870044205145276
---
transforms:
- header:
    stamp:
      sec: 3
      nanosec: 300000000
    frame_id: /odom
  child_frame_id: base_link
  transform:
    translation:
      x: -0.12647236717850813
      y: 0.3243807815290224
      z: 0.0
    rotation:
      x: 0.0
      y: 0.0
      z: 0.9719821969286442
      w: 0.23505448060772297
---
transforms:
- header:
    stamp:
      sec: 3
      nanosec: 400000000
    frame_id: /odom
  child_frame_id: base_link
  transform:
    translation:
      x: -0.1428991319293649
      y: 0.3356587605505382
      z: 0.0
    rotation:
      x: 0.0
      y: 0.0
      z: 0.9301510775810562
      w: 0.3671770320632814
---
transforms:
- header:
    stamp:
      sec: 3
      nanosec: 500000000
    frame_id: /odom
  child_frame_id: base_link
  transform:
    translation:
      x: -0.15524500689402915
      y: 0.3512974087461757
      z: 0.0
    rotation:
      x: 0.0
      y: 0.0
      z: 0.8645600165128695
      w: 0.5025295790769602
---
transforms:
- header:
    stamp:
      sec: 3
      nanosec: 600000000
    frame_id: /odom
  child_frame_id: base_link
  transform:
    translation:
      x: -0.16702081245652126
      y: 0.3673677300506717
      z: 0.0
    rotation:
      x: 0.0
      y: 0.0
      z: 0.9241743589643128
      w: 0.3819708813939899
---
transforms:
- header:
    stamp:
      sec: 3
      nanosec: 700000000
    frame_id: /odom
  child_frame_id: base_link
  transform:
    translation:
      x: -0.17890019844382166
      y: 0.3833590935981481
      z: 0.0
    rotation:
      x: 0.0
      y: 0.0
      z: 0.8561507401372851
      w: 0.5167261461958151
---
transforms:
- header:
    stamp:
      sec: 3
      nanosec: 800000000
    frame_id: /odom
  child_frame_id: base_link
  transform:
    translation:
      x: -0.18548585152803973
      y: 0.4021669188181777
      z: 0.0
    rotation:
      x: 0.0
      y: 0.0
      z: 0.7707573969694262
      w: 0.6371287428902531
---
transforms:
- header:
    stamp:
      sec: 3
      nanosec: 900000000
    frame_id: /odom
  child_frame_id: base_link
  transform:
    translation:
      x: -0.18626210548826555
      y: 0.4220764741386446
      z: 0.0
    rotation:
      x: 0.0
      y: 0.0
      z: 0.6666314889150341
      w: 0.7453874549433502
---
transforms:
- header:
    stamp:
      sec: 4
      nanosec: 0
    frame_id: /odom
  child_frame_id: base_link
  transform:
    translation:
      x: -0.1810530839085128
      y: 0.44130518777332345
      z: 0.0
    rotation:
      x: 0.0
      y: 0.0
      z: 0.5450790555271957
      w: 0.8383846511152149
---
transforms:
- header:
    stamp:
      sec: 4
      nanosec: 100000000
    frame_id: /odom
  child_frame_id: base_link
  transform:
    translation:
      x: -0.1730070276910339
      y: 0.45959584654351615
      z: 0.0
    rotation:
      x: 0.0
      y: 0.0
      z: 0.5802757868543078
      w: 0.8144200459164879
---
transforms:
- header:
    stamp:
      sec: 4
      nanosec: 200000000
    frame_id: /odom
  child_frame_id: base_link
  transform:
    translation:
      x: -0.168266930491117
      y: 0.47899594079180363
      z: 0.0
    rotation:
      x: 0.0
      y: 0.0
      z: 0.6537140714717802
      w: 0.7567416420151519
---
transforms:
- header:
    stamp:
      sec: 4
      nanosec: 300000000
    frame_id: /odom
  child_frame_id: base_link
  transform:
    translation:
      x: -0.16731933035442492
      y: 0.49894015254109303
      z: 0.0
    rotation:
      x: 0.0
      y: 0.0
      z: 0.725536548924297
      w: 0.6881836355036505
---
transforms:
- header:
    stamp:
      sec: 4
      nanosec: 400000000
    frame_id: /odom
  child_frame_id: base_link
  transform:
    translation:
      x: -0.17048575626601606
      y: 0.5186481835755018
      z: 0.0
    rotation:
      x: 0.0
      y: 0.0
      z: 0.7953034058669218
      w: 0.6062115906319132
---
transforms:
- header:
    stamp:
      sec: 4
      nanosec: 500000000
    frame_id: /odom
  child_frame_id: base_link
  transform:
    translation:
      x: -0.17795383309546067
      y: 0.5371524033982981
      z: 0.0
    rotation:
      x: 0.0
      y: 0.0
      z: 0.860277002648381
      w: 0.5098269105434879
---
transforms:
- header:
    stamp:
      sec: 4
      nanosec: 600000000
    frame_id: /odom
  child_frame_id: base_link
  transform:
    translation:
      x: -0.18962988415188406
      y: 0.5533236895599558
      z: 0.0
    rotation:
      x: 0.0
      y: 0.0
      z: 0.9176509665119362
      w: 0.3973873471308685
---
transforms:
- header:
    stamp:
      sec: 4
      nanosec: 700000000
    frame_id: /odom
  child_frame_id: base_link
  transform:
    translation:
      x: -0.20511883932365685
      y: 0.5658727188504705
      z: 0.0
    rotation:
      x: 0.0
      y: 0.0
      z: 0.9638319473822169
      w: 0.26651074500928373
---
transforms:
- header:
    stamp:
      sec: 4
      nanosec: 800000000
    frame_id: /odom
  child_frame_id: base_link
  transform:
    translation:
      x: -0.22354386121643352
      y: 0.5734544216977521
      z: 0.0
    rotation:
      x: 0.0
      y: 0.0
      z: 0.9928732665931541
      w: 0.1191749826290717
---
transforms:
- header:
    stamp:
      sec: 4
      nanosec: 900000000
    frame_id: /odom
  child_frame_id: base_link
  transform:
    translation:
      x: -0.2428771849331988
      y: 0.5784049415349828
      z: 0.0
    rotation:
      x: 0.0
      y: 0.0
      z: 0.9816857330491329
      w: 0.19050753666925305
---
transforms:
- header:
    stamp:
      sec: 5
      nanosec: 0
    frame_id: /odom
  child_frame_id: base_link
  transform:
    translation:
      x: -0.2600353489145528
      y: 0.5885368559584548
      z: 0.0
    rotation:
      x: 0.0
      y: 0.0
      z: 0.942426305075276
      w: 0.3344139044689423
---
transforms:
- header:
    stamp:
      sec: 5
      nanosec: 100000000
    frame_id: /odom
  child_frame_id: base_link
  transform:
    translation:
      x: -0.2734772109874341
      y: 0.6032469418307973
      z: 0.0
    rotation:
      x: 0.0
      y: 0.0
      z: 0.8825992312742885
      w: 0.47012615004276775
---
transforms:
- header:
    stamp:
      sec: 5
      nanosec: 200000000
    frame_id: /odom
  child_frame_id: base_link
  transform:
    translation:
      x: -0.2820274066899154
      y: 0.621245953910249
      z: 0.0
    rotation:
      x: 0.0
      y: 0.0
      z: 0.8033575406671792
      w: 0.5954969872746473
---
transforms:
- header:
    stamp:
      sec: 5
      nanosec: 300000000
    frame_id: /odom
  child_frame_id: base_link
  transform:
    translation:
      x: -0.2849377554442051
      y: 0.6409588976921743
      z: 0.0
    rotation:
      x: 0.0
      y: 0.0
      z: 0.7064443200429436
      w: 0.707768622276421
---
transforms:
- header:
    stamp:
      sec: 5
      nanosec: 400000000
    frame_id: /odom
  child_frame_id: base_link
  transform:
    translation:
      x: -0.2819535886451816
      y: 0.6606608019381539
      z: 0.0
    rotation:
      x: 0.0
      y: 0.0
      z: 0.5939913784644392
      w: 0.8044714055265827
---
transforms:
- header:
    stamp:
      sec: 5
      nanosec: 500000000
    frame_id: /odom
  child_frame_id: base_link
  transform:
    translation:
      x: -0.27333603430921527
      y: 0.6786276614200222
      z: 0.0
    rotation:
      x: 0.0
      y: 0.0
      z: 0.4684723536732921
      w: 0.883478156970395
---
transforms:
- header:
    stamp:
      sec: 5
      nanosec: 600000000
    frame_id: /odom
  child_frame_id: base_link
  transform:
    translation:
      x: -0.2598391671965144
      y: 0.6932872951304004
      z: 0.0
    rotation:
      x: 0.0
      y: 0.0
      z: 0.33264829925130573
      w: 0.9430509577987893
---
transforms:
- header:
    stamp:
      sec: 5
      nanosec: 700000000
    frame_id: /odom
  child_frame_id: base_link
  transform:
    translation:
      x: -0.24264402387894546
      y: 0.7033569191902207
      z: 0.0
    rotation:
      x: 0.0
      y: 0.0
      z: 0.18950694946929345
      w: 0.9818793796097578
---
transforms:
- header:
    stamp:
      sec: 5
      nanosec: 800000000
    frame_id: /odom
  child_frame_id: base_link
  transform:
    translation:
      x: -0.22325525673168545
      y: 0.707955396206794
      z: 0.0
    rotation:
      x: 0.0
      y: 0.0
      z: 0.042196997815811106
      w: 0.999109310023349
---
transforms:
- header:
    stamp:
      sec: 5
      nanosec: 900000000
    frame_id: /odom
  child_frame_id: base_link
  transform:
    translation:
      x: -0.2033694700769453
      y: 0.7066803387607165
      z: 0.0
    rotation:
      x: 0.0
      y: 0.0
      z: -0.10604116509554438
      w: 0.9943617406684448
---
transforms:
- header:
    stamp:
      sec: 6
      nanosec: 0
    frame_id: /odom
  child_frame_id: base_link
  transform:
    translation:
      x: -0.18472675967989843
      y: 0.699643320112418
      z: 0.0
    rotation:
      x: 0.0
      y: 0.0
      z: -0.25194673070346213
      w: 0.967741104266961
---
transforms:
- header:
    stamp:
      sec: 6
      nanosec: 100000000
    frame_id: /odom
  child_frame_id: base_link
  transform:
    translation:
      x: -0.16895844654456632
      y: 0.6874601110421703
      z: 0.0
    rotation:
      x: 0.0
      y: 0.0
      z: -0.39231020080716117
      w: 0.9198329774163595
---
transforms:
- header:
    stamp:
      sec: 6
      nanosec: 200000000
    frame_id: /odom
  child_frame_id: base_link
  transform:
    translation:
      x: -0.1574443289856833
      y: 0.6711967971361434
      z: 0.0
    rotation:
      x: 0.0
      y: 0.0
      z: -0.5240439871909999
      w: 0.8516911996075568
---
transforms:
- header:
    stamp:
      sec: 6
      nanosec: 300000000
    frame_id: /odom
  child_frame_id: base_link
  transform:
    translation:
      x: -0.15119194407262423
      y: 0.6522764915026669
      z: 0.0
    rotation:
      x: 0.0
      y: 0.0
      z: -0.6442503295889285
      w: 0.7648146918205462
---
transforms:
- header:
    stamp:
      sec: 6
      nanosec: 400000000
    frame_id: /odom
  child_frame_id: base_link
  transform:
    translation:
      x: -0.1507484036045339
      y: 0.6323548059753799
      z: 0.0
    rotation:
      x: 0.0
      y: 0.0
      z: -0.750285037984873
      w: 0.6611144846212627
---
transforms:
- header:
    stamp:
      sec: 6
      nanosec: 500000000
    frame_id: /odom
  child_frame_id: base_link
  transform:
    translation:
      x: -0.1561525193667582
      y: 0.6131749776347498
      z: 0.0
    rotation:
      x: 0.0
      y: 0.0
      z: -0.8398156571058034
      w: 0.5428716810443769
---
transforms:
- header:
    stamp:
      sec: 6
      nanosec: 600000000
    frame_id: /odom
  child_frame_id: base_link
  transform:
    translation:
      x: -0.1669314069266777
      y: 0.5964153277169698
      z: 0.0
    rotation:
      x: 0.0
      y: 0.0
      z: -0.9108727736549531
      w: 0.4126872789584536
---
transforms:
- header:
    stamp:
      sec: 6
      nanosec: 700000000
    frame_id: /odom
  child_frame_id: base_link
  transform:
    translation:
      x: -0.1821418651465123
      y: 0.5835424009648957
      z: 0.0
    rotation:
      x: 0.0
      y: 0.0
      z: -0.9618933376742449
      w: 0.27342495668446415
---
transforms:
- header:
    stamp:
      sec: 6
      nanosec: 800000000
    frame_id: /odom
  child_frame_id: base_link
  transform:
    translation:
      x: -0.2004529105238671
      y: 0.5756826363642907
      z: 0.0
    rotation:
      x: 0.0
      y: 0.0
      z: -0.9917550451062568
      w: 0.12814808038471176
---
transforms:
- header:
    stamp:
      sec: 6
      nanosec: 900000000
    frame_id: /odom
  child_frame_id: base_link
  transform:
    translation:
      x: -0.2202622442376014
      y: 0.5735237986652139
      z: 0.0
    rotation:
      x: 0.0
      y: -0.0
      z: -0.9998010252143827
      w: -0.019947681074984926
---
transforms:
- header:
    stamp:
      sec: 7
      nanosec: 0
    frame_id: /odom
  child_frame_id: base_link
  transform:
    translation:
      x: -0.23983646049790242
      y: 0.5772547958757022
      z: 0.0
    rotation:
      x: 0.0
      y: -0.0
      z: -0.985854289831002
      w: -0.16760465155183113
---
transforms:
- header:
    stamp:
      sec: 7
      nanosec: 100000000
    frame_id: /odom
  child_frame_id: base_link
  transform:
    translation:
      x: -0.25746272735021963
      y: 0.5865491489604746
      z: 0.0
    rotation:
      x: 0.0
      y: -0.0
      z: -0.9502216265827473
      w: -0.31157480702784374
---
transforms:
- header:
    stamp:
      sec: 7
      nanosec: 200000000
    frame_id: /odom
  child_frame_id: base_link
  transform:
    translation:
      x: -0.27159866717226544
      y: 0.600593560223482
      z: 0.0
    rotation:
      x: 0.0
      y: -0.0
      z: -0.8936868504537808
      w: -0.4486912226977496
---
transforms:
- header:
    stamp:
      sec: 7
      nanosec: 300000000
    frame_id: /odom
  child_frame_id: base_link
  transform:
    translation:
      x: -0.2810073216558395
      y: 0.6181590805170495
      z: 0.0
    rotation:
      x: 0.0
      y: -0.0
      z: -0.8174935621359583
      w: -0.5759377361019697
---
transforms:
- header:
    stamp:
      sec: 7
      nanosec: 400000000
    frame_id: /odom
  child_frame_id: base_link
  transform:
    translation:
      x: -0.2893866950763469
      y: 0.6362792646027695
      z: 0.0
    rotation:
      x: 0.0
      y: -0.0
      z: -0.8695382973792254
      w: -0.4938655175154851
---
transforms:
- header:
    stamp:
      sec: 7
      nanosec: 500000000
    frame_id: /odom
  child_frame_id: base_link
  transform:
    translation:
      x: -0.3013505442830425
      y: 0.6522605437309978
      z: 0.0
    rotation:
      x: 0.0
      y: -0.0
      z: -0.9164664029217926
      w: -0.40011164981238756
---
transforms:
- header:
    stamp:
      sec: 7
      nanosec: 600000000
    frame_id: /odom
  child_frame_id: base_link
  transform:
    translation:
      x: -0.3164314885902495
      y: 0.6653345234012955
      z: 0.0
    rotation:
      x: 0.0
      y: -0.0
      z: -0.9549130227035262
      w: -0.29688570034815603
---
transforms:
- header:
    stamp:
      sec: 7
      nanosec: 700000000
    frame_id: /odom
  child_frame_id: base_link
  transform:
    translation:
      x: -0.3340779264066523
      y: 0.6746442585573116
      z: 0.0
    rotation:
      x: 0.0
      y: -0.0
      z: -0.983497960832661
      w: -0.18091921135688632
---
transforms:
- header:
    stamp:
      sec: 7
      nanosec: 800000000
    frame_id: /odom
  child_frame_id: base_link
  transform:
    translation:
      x: -0.3534622076930612
      y: 0.6793300871556708
      z: 0.0
    rotation:
      x: 0.0
      y: -0.0
      z: -0.9987281853339519
      w: -0.05041836787869503
---
transforms:
- header:
    stamp:
      sec: 7
      nanosec: 900000000
    frame_id: /odom
  child_frame_id: base_link
  transform:
    translation:
      x: -0.3733658096689374
      y: 0.6783950840338708
      z: 0.0
    rotation:
      x: 0.0
      y: 0.0
      z: -0.9951650874369766
      w: 0.09821633645455624
---
transforms:
- header:
    stamp:
      sec: 8
      nanosec: 0
    frame_id: /odom
  child_frame_id: base_link
  transform:
    translation:
      x: -0.393127339320019
      y: 0.6757343430634781
      z: 0.0
    rotation:
      x: 0.0
      y: -0.0
      z: -0.9999869476846555
      w: -0.005109252423424979
---
transforms:
- header:
    stamp:
      sec: 8
      nanosec: 100000000
    frame_id: /odom
  child_frame_id: base_link
  transform:
    translation:
      x: -0.4128052777246513
      y: 0.6788841011109992
      z: 0.0
    rotation:
      x: 0.0
      y: -0.0
      z: -0.9884285014650955
      w: -0.1516874994568294
---
transforms:
- header:
    stamp:
      sec: 8
      nanosec: 200000000
    frame_id: /odom
  child_frame_id: base_link
  transform:
    translation:
      x: -0.4307568819213187
      y: 0.687542611568395
      z: 0.0
    rotation:
      x: 0.0
      y: -0.0
      z: -0.9563701407157789
      w: -0.2921577552406945
---
transforms:
- header:
    stamp:
      sec: 8
      nanosec: 300000000
    frame_id: /odom
  child_frame_id: base_link
  transform:
    translation:
      x: -0.44559296513424557
      y: 0.7008622500625233
      z: 0.0
    rotation:
      x: 0.0
      y: -0.0
      z: -0.9074412122501445
      w: -0.42017906457841087
---
transforms:
- header:
    stamp:
      sec: 8
      nanosec: 400000000
    frame_id: /odom
  child_frame_id: base_link
  transform:
    translation:
      x: -0.45649384349561384
      y: 0.7175705412073902
      z: 0.0
    rotation:
      x: 0.0
      y: -0.0
      z: -0.8485839834312231
      w: -0.5290606988465479
---
transforms:
- header:
    stamp:
      sec: 8
      nanosec: 500000000
    frame_id: /odom
  child_frame_id: base_link
  transform:
    translation:
      x: -0.4630675676734888
      y: 0.7364088038623988
      z: 0.0
    rotation:
      x: 0.0
      y: -0.0
      z: -0.7792410516562692
      w: -0.6267243280850295
---
transforms:
- header:
    stamp:
      sec: 8
      nanosec: 600000000
    frame_id: /odom
  child_frame_id: base_link
  transform:
    translation:
      x: -0.4650826042226875
      y: 0.7562650147364705
      z: 0.0
    rotation:
      x: 0.0
      y: -0.0
      z: -0.7037489085860326
      w: -0.7104487832799546
---
transforms:
- header:
    stamp:
      sec: 8
      nanosec: 700000000
    frame_id: /odom
  child_frame_id: base_link
  transform:
    translation:
      x: -0.46277723797438247
      y: 0.7760952369630784
      z: 0.0
    rotation:
      x: 0.0
      y: -0.0
      z: -0.6255425752254388
      w: -0.7801900323513024
---
transforms:
- header:
    stamp:
      sec: 8
      nanosec: 800000000
    frame_id: /odom
  child_frame_id: base_link
  transform:
    translation:
      x: -0.45654987852127643
      y: 0.7950685284514688
      z: 0.0
    rotation:
      x: 0.0
      y: -0.0
      z: -0.547091024031272
      w: -0.8370731219101556
---
transforms:
- header:
    stamp:
      sec: 8
      nanosec: 900000000
    frame_id: /odom
  child_frame_id: base_link
  transform:
    translation:
      x: -0.44687614708963974
      y: 0.812541163309248
      z: 0.0
    rotation:
      x: 0.0
      y: -0.0
      z: -0.4676636219071441
      w: -0.8839065203655259
---
transforms:
- header:
    stamp:
      sec: 9
      nanosec: 0
    frame_id: /odom
  child_frame_id: base_link
  transform:
    translation:
      x: -0.43590039611320924
      y: 0.8292544118167747
      z: 0.0
    rotation:
      x: 0.0
      y: -0.0
      z: -0.4926223913306736
      w: -0.8702431726590268
---
transforms:
- header:
    stamp:
      sec: 9
      nanosec: 100000000
    frame_id: /odom
  child_frame_id: base_link
  transform:
    translation:
      x: -0.42619545519527036
      y: 0.8467379853069943
      z: 0.0
    rotation:
      x: 0.0
      y: -0.0
      z: -0.5210397604727061
      w: -0.8535324059498532
---
transforms:
- header:
    stamp:
      sec: 9
      nanosec: 200000000
    frame_id: /odom
  child_frame_id: base_link
  transform:
    translation:
      x: -0.41762194373417383
      y: 0.8648034977972362
      z: 0.0
    rotation:
      x: 0.0
      y: -0.0
      z: -0.5476771678533777
      w: -0.8366897392774117
---
transforms:
- header:
    stamp:
      sec: 9
      nanosec: 300000000
    frame_id: /odom
  child_frame_id: base_link
  transform:
    translation:
      x: -0.4101805173865424
      y: 0.8833643133523387
      z: 0.0
    rotation:
      x: 0.0
      y: -0.0
      z: -0.5727230619394736
      w: -0.8197489215135777
---
transforms:
- header:
    stamp:
      sec: 9
      nanosec: 400000000
    frame_id: /odom
  child_frame_id: base_link
  transform:
    translation:
      x: -0.40388431230648747
      y: 0.9023440238923395
      z: 0.0
    rotation:
      x: 0.0
      y: -0.0
      z: -0.5978172108619969
      w: -0.8016324484432892
---
transforms:
- header:
    stamp:
      sec: 9
      nanosec: 500000000
    frame_id: /odom
  child_frame_id: base_link
  transform:
    translation:
      x: -0.39875249393179163
      y: 0.9216713867425489
      z: 0.0
    rotation:
      x: 0.0
      y: -0.0
      z: -0.6213580114916396
      w: -0.7835267841976785
---
transforms:
- header:
    stamp:
      sec: 9
      nanosec: 600000000
    frame_id: /odom
  child_frame_id: base_link
  transform:
    translation:
      x: -0.394768263151005
      y: 0.9412676139776456
      z: 0.0
    rotation:
      x: 0.0
      y: -0.0
      z: -0.6439978239160384
      w: -0.7650273215979985
---
transforms:
- header:
    stamp:
      sec: 9
      nanosec: 700000000
    frame_id: /odom
  child_frame_id: base_link
  transform:
    translation:
      x: -0.3919465366954558
      y: 0.9610645693962758
      z: 0.0
    rotation:
      x: 0.0
      y: -0.0
      z: -0.6665043506259595
      w: -0.7455011405736869
---
transforms:
- header:
    stamp:
      sec: 9
      nanosec: 800000000
    frame_id: /odom
  child_frame_id: base_link
  transform:
    translation:
      x: -0.390250956407053
      y: 0.9809902709274658
      z: 0.0
    rotation:
      x: 0.0
      y: -0.0
      z: -0.6860151090045898
      w: -0.7275872938812364
---
transforms:
- header:
    stamp:
      sec: 9
      nanosec: 900000000
    frame_id: /odom
  child_frame_id: base_link
  transform:
    translation:
      x: -0.3895779594886521
      y: 1.0009768665245844
      z: 0.0
    rotation:
      x: 0.0
      y: -0.0
      z: -0.7040178222251682
      w: -0.7101823047565544
---
transforms:
- header:
    stamp:
      sec: 10
      nanosec: 0
    frame_id: /odom
  child_frame_id: base_link
  transform:
    translation:
      x: -0.3895762657858736
      y: 1.0011768593514443
      z: 0.0
    rotation:
      x: 0.0
      y: -0.0
      z: -0.7041948539294753
      w: -0.7100067659531456
---
transforms:
- header:
    stamp:
      sec: 10
      nanosec: 100000000
    frame_id: /odom
  child_frame_id: base_link
  transform:
    translation:
      x: -0.3882327904935022
      y: 1.0197154990974624
      z: 0.0
    rotation:
      x: 0.0
      y: -0.0
      z: -0.6572509247899532
      w: -0.7536718263692437
---
transforms:
- header:
    stamp:
      sec: 10
      nanosec: 200000000
    frame_id: /odom
  child_frame_id: base_link
  transform:
    translation:
      x: -0.3841568737541946
      y: 1.0392795948547642
      z: 0.0
    rotation:
      x: 0.0
      y: -0.0
      z: -0.6037810949185218
      w: -0.7971501674207884
---
transforms:
- header:
    stamp:
      sec: 10
      nanosec: 300000000
    frame_id: /odom
  child_frame_id: base_link
  transform:
    translation:
      x: -0.3773332131630468
      y: 1.0580599657691934
      z: 0.0
    rotation:
      x: 0.0
      y: -0.0
      z: -0.5429936826882144
      w: -0.8397367805215458
---
transforms:
- header:
    stamp:
      sec: 10
      nanosec: 400000000
    frame_id: /odom
  child_frame_id: base_link
  transform:
    translation:
      x: -0.36780362021204777
      y: 1.075622703351542
      z: 0.0
    rotation:
      x: 0.0
      y: -0.0
      z: -0.4790985157608743
      w: -0.8777611361843991
---
transforms:
- header:
    stamp:
      sec: 10
      nanosec: 500000000
    frame_id: /odom
  child_frame_id: base_link
  transform:
    translation:
      x: -0.3589907364681142
      y: 1.0934954467933902
      z: 0.0
    rotation:
      x: 0.0
      y: -0.0
      z: -0.5904784990709473
      w: -0.8070533700660206
---
transforms:
- header:
    stamp:
      sec: 10
      nanosec: 600000000
    frame_id: /odom
  child_frame_id: base_link
  transform:
    translation:
      x: -0.3559418032737275
      y: 1.1131817197825067
      z: 0.0
    rotation:
      x: 0.0
      y: -0.0
      z: -0.7072572653240945
      w: -0.706956265016644
---
transforms:
- header:
    stamp:
      sec: 10
      nanosec: 700000000
    frame_id: /odom
  child_frame_id: base_link
  transform:
    translation:
      x: -0.3555125613084053
      y: 1.133131836982868
      z: 0.0
    rotation:
      x: 0.0
      y: -0.0
      z: -0.6503596523749435
      w: -0.7596264361926477
---
transforms:
- header:
    stamp:
      sec: 10
      nanosec: 800000000
    frame_id: /odom
  child_frame_id: base_link
  transform:
    translation:
      x: -0.3495669939484482
      y: 1.152152000905062
      z: 0.0
    rotation:
      x: 0.0
      y: -0.0
      z: -0.5315353246532303
      w: -0.847036125939021
---
transforms:
- header:
    stamp:
      sec: 10
      nanosec: 900000000
    frame_id: /odom
  child_frame_id: base_link
  transform:
    translation:
      x: -0.33835230170140035
      y: 1.1686235523545925
      z: 0.0
    rotation:
      x: 0.0
      y: -0.0
      z: -0.40079650877975115
      w: -0.9161671018705938
---
transforms:
- header:
    stamp:
      sec: 11
      nanosec: 0
    frame_id: /odom
  child_frame_id: base_link
  transform:
    translation:
      x: -0.3228014626194224
      y: 1.1810803819133622
      z: 0.0
    rotation:
      x: 0.0
      y: -0.0
      z: -0.25935652001239307
      w: -0.9657816500260611
---
transforms:
- header:
    stamp:
      sec: 11
      nanosec: 100000000
    frame_id: /odom
  child_frame_id: base_link
  transform:
    translation:
      x: -0.30425701077520734
      y: 1.1883688350227668
      z: 0.0
    rotation:
      x: 0.0
      y: -0.0
      z: -0.1122148185989861
      w: -0.9936839711330745
---
transforms:
- header:
    stamp:
      sec: 11
      nanosec: 200000000
    frame_id: /odom
  child_frame_id: base_link
  transform:
    translation:
      x: -0.2843881576379108
      y: 1.1898513440773768
      z: 0.0
    rotation:
      x: -0.0
      y: 0.0
      z: 0.03836795739684955
      w: -0.9992636788381701
---
transforms:
- header:
    stamp:
      sec: 11
      nanosec: 300000000
    frame_id: /odom
  child_frame_id: base_link
  transform:
    translation:
      x: -0.2649751668234418
      y: 1.1853629291003798
      z: 0.0
    rotation:
      x: -0.0
      y: 0.0
      z: 0.18739306657095645
      w: -0.9822850088447513
---
transforms:
- header:
    stamp:
      sec: 11
      nanosec: 400000000
    frame_id: /odom
  child_frame_id: base_link
  transform:
    translation:
      x: -0.2477614605180363
      y: 1.175329952976014
      z: 0.0
    rotation:
      x: -0.0
      y: 0.0
      z: 0.33285531554049946
      w: -0.9429779100893269
---
transforms:
- header:
    stamp:
      sec: 11
      nanosec: 500000000
    frame_id: /odom
  child_frame_id: base_link
  transform:
    translation:
      x: -0.23431479542494082
      y: 1.1606281944661483
      z: 0.0
    rotation:
      x: -0.0
      y: 0.0
      z: 0.4712119071066916
      w: -0.8820200329929444
---
transforms:
- header:
    stamp:
      sec: 11
      nanosec: 600000000
    frame_id: /odom
  child_frame_id: base_link
  transform:
    translation:
      x: -0.22584525769259978
      y: 1.1425929224878424
      z: 0.0
    rotation:
      x: -0.0
      y: 0.0
      z: 0.5979250593253131
      w: -0.8015520091864412
---
transforms:
- header:
    stamp:
      sec: 11
      nanosec: 700000000
    frame_id: /odom
  child_frame_id: base_link
  transform:
    translation:
      x: -0.2230990767208634
      y: 1.1228589630245656
      z: 0.0
    rotation:
      x: -0.0
      y: 0.0
      z: 0.7115997349467967
      w: -0.7025850960728164
---
transforms:
- header:
    stamp:
      sec: 11
      nanosec: 800000000
    frame_id: /odom
  child_frame_id: base_link
  transform:
    translation:
      x: -0.226346044887374
      y: 1.1032011544100728
      z: 0.0
    rotation:
      x: -0.0
      y: 0.0
      z: 0.8091506703333181
      w: -0.5876012191096458
---
transforms:
- header:
    stamp:
      sec: 11
      nanosec: 900000000
    frame_id: /odom
  child_frame_id: base_link
  transform:
    translation:
      x: -0.23531625795390848
      y: 1.085412489632058
      z: 0.0
    rotation:
      x: -0.0
      y: 0.0
      z: 0.8890555694196769
      w: -0.45779929497963856
---
transforms:
- header:
    stamp:
      sec: 12
      nanosec: 0
    frame_id: /odom
  child_frame_id: base_link
  transform:
    translation:
      x: -0.24925767461997603
      y: 1.0711861113735346
      z: 0.0
    rotation:
      x: -0.0
      y: 0.0
      z: 0.9493803611425606
      w: -0.31412884279674363
---
transforms:
- header:
    stamp:
      sec: 12
      nanosec: 100000000
    frame_id: /odom
  child_frame_id: base_link
  transform:
    translation:
      x: -0.2640256473229718
      y: 1.0578009324794397
      z: 0.0
    rotation:
      x: -0.0
      y: 0.0
      z: 0.903945175262506
      w: -0.4276483603612171
---
transforms:
- header:
    stamp:
      sec: 12
      nanosec: 200000000
    frame_id: /odom
  child_frame_id: base_link
  transform:
    translation:
      x: -0.27415034913175246
      y: 1.040645226374496
      z: 0.0
    rotation:
      x: -0.0
      y: 0.0
      z: 0.82753596077947
      w: -0.5614127123754854
---
transforms:
- header:
    stamp:
      sec: 12
      nanosec: 300000000
    frame_id: /odom
  child_frame_id: base_link
  transform:
    translation:
      x: -0.28382677130712347
      y: 1.02322896019584
      z: 0.0
    rotation:
      x: -0.0
      y: 0.0
      z: 0.8979198375436817
      w: -0.4401590227923636
---
transforms:
- header:
    stamp:
      sec: 12
      nanosec: 400000000
    frame_id: /odom
  child_frame_id: base_link
  transform:
    translation:
      x: -0.2982682977280741
      y: 1.0095028353722124
      z: 0.0
    rotation:
      x: -0.0
      y: 0.0
      z: 0.953998594583864
      w: -0.2998110763998093
---
transforms:
- header:
    stamp:
      sec: 12
      nanosec: 500000000
    frame_id: /odom
  child_frame_id: base_link
  transform:
    translation:
      x: -0.31616352004846887
      y: 1.0007505994680177
      z: 0.0
    rotation:
      x: -0.0
      y: 0.0
      z: 0.988718898514195
      w: -0.14978297540400612
---
transforms:
- header:
    stamp:
      sec: 12
      nanosec: 600000000
    frame_id: /odom
  child_frame_id: base_link
  transform:
    translation:
      x: -0.3348704602870399
      y: 0.9937188625736191
      z: 0.0
    rotation:
      x: -0.0
      y: 0.0
      z: 0.9772849475665724
      w: -0.21192954315008103
---
transforms:
- header:
    stamp:
      sec: 12
      nanosec: 700000000
    frame_id: /odom
  child_frame_id: base_link
  transform:
    translation:
      x: -0.35252008181572453
      y: 0.9843354345294018
      z: 0.0
    rotation:
      x: -0.0
      y: 0.0
      z: 0.9632093212798932
      w: -0.2687523086403678
---
transforms:
- header:
    stamp:
      sec: 12
      nanosec: 800000000
    frame_id: /odom
  child_frame_id: base_link
  transform:
    translation:
      x: -0.36908961272604324
      y: 0.9731491072172792
      z: 0.0
    rotation:
      x: -0.0
      y: 0.0
      z: 0.9488454254202034
      w: -0.3157409676604437
---
transforms:
- header:
    stamp:
      sec: 12
      nanosec: 900000000
    frame_id: /odom
  child_frame_id: base_link
  transform:
    translation:
      x: -0.3845862945920081
      y: 0.9605147827438874
      z: 0.0
    rotation:
      x: -0.0
      y: 0.0
      z: 0.9349726398601511
      w: -0.35471983693182463
---
transforms:
- header:
    stamp:
      sec: 13
      nanosec: 0
    frame_id: /odom
  child_frame_id: base_link
  transform:
    translation:
      x: -0.39897964258431595
      y: 0.946636876806474
      z: 0.0
    rotation:
      x: -0.0
      y: 0.0
      z: 0.9192634290879265
      w: -0.39364291933363504
---
transforms:
- header:
    stamp:
      sec: 13
      nanosec: 100000000
    frame_id: /odom
  child_frame_id: base_link
  transform:
    translation:
      x: -0.412122624569904
      y: 0.9315706270083628
      z: 0.0
    rotation:
      x: -0.0
      y: 0.0
      z: 0.9007455318952573
      w: -0.4343471961124304
---
transforms:
- header:
    stamp:
      sec: 13
      nanosec: 200000000
    frame_id: /odom
  child_frame_id: base_link
  transform:
    translation:
      x: -0.4237380902877745
      y: 0.9153006392893761
      z: 0.0
    rotation:
      x: -0.0
      y: 0.0
      z: 0.8767710989865406
      w: -0.48090793295799766
---
transforms:
- header:
    stamp:
      sec: 13
      nanosec: 300000000
    frame_id: /odom
  child_frame_id: base_link
  transform:
    translation:
      x: -0.43345261183331457
      y: 0.8978321606084225
      z: 0.0
    rotation:
      x: -0.0
      y: 0.0
      z: 0.8463762058835398
      w: -0.5325855031017873
---
transforms:
- header:
    stamp:
      sec: 13
      nanosec: 400000000
    frame_id: /odom
  child_frame_id: base_link
  transform:
    translation:
      x: -0.4342226981057921
      y: 0.8962052200423828
      z: 0.0
    rotation:
      x: -0.0
      y: 0.0
      z: 0.8434861357500772
      w: -0.5371509460081053
---
transforms:
- header:
    stamp:
      sec: 13
      nanosec: 500000000
    frame_id: /odom
  child_frame_id: base_link
  transform:
    translation:
      x: -0.4444872357325705
      y: 0.8795594180480472
      z: 0.0
    rotation:
      x: -0.0
      y: 0.0
      z: 0.8999364917169732
      w: -0.43602099820552925
---
transforms:
- header:
    stamp:
      sec: 13
      nanosec: 600000000
    frame_id: /odom
  child_frame_id: base_link
  transform:
    translation:
      x: -0.4548037974159772
      y: 0.8624909554146319
      z: 0.0
    rotation:
      x: -0.0
      y: 0.0
      z: 0.8373308059421857
      w: -0.5466965533275382
---
transforms:
- header:
    stamp:
      sec: 13
      nanosec: 700000000
    frame_id: /odom
  child_frame_id: base_link
  transform:
    translation:
      x: -0.4604844034688416
      y: 0.8433690281400869
      z: 0.0
    rotation:
      x: -0.0
      y: 0.0
      z: 0.7625390655365332
      w: -0.6469421717052234
---
transforms:
- header:
    stamp:
      sec: 13
      nanosec: 800000000
    frame_id: /odom
  child_frame_id: base_link
  transform:
    translation:
      x: -0.46118919592857566
      y: 0.8234365432060486
      z: 0.0
    rotation:
      x: -0.0
      y: 0.0
      z: 0.6733850145870931
      w: -0.7392919735324741
---
transforms:
- header:
    stamp:
      sec: 13
      nanosec: 900000000
    frame_id: /odom
  child_frame_id: base_link
  transform:
    translation:
      x: -0.4566523314259809
      y: 0.8040245845124513
      z: 0.0
    rotation:
      x: -0.0
      y: 0.0
      z: 0.5649379468506116
      w: -0.8251333929785023
---
transforms:
- header:
    stamp:
      sec: 14
      nanosec: 0
    frame_id: /odom
  child_frame_id: base_link
  transform:
    translation:
      x: -0.446827408488152
      y: 0.7866886281126813
      z: 0.0
    rotation:
      x: -0.0
      y: 0.0
      z: 0.43723155648871864
      w: -0.8993489678708996
---
transforms:
- header:
    stamp:
      sec: 14
      nanosec: 100000000
    frame_id: /odom
  child_frame_id: base_link
  transform:
    translation:
      x: -0.4347086340522802
      y: 0.770830136910224
      z: 0.0
    rotation:
      x: -0.0
      y: 0.0
      z: 0.5000155860522895
      w: -0.866016404985948
---
transforms:
- header:
    stamp:
      sec: 14
      nanosec: 200000000
    frame_id: /odom
  child_frame_id: base_link
  transform:
    translation:
      x: -0.42732961042938034
      y: 0.7523125534731102
      z: 0.0
    rotation:
      x: -0.0
      y: 0.0
      z: 0.6175012428702663
      w: -0.786569904746982
---
transforms:
- header:
    stamp:
      sec: 14
      nanosec: 300000000
    frame_id: /odom
  child_frame_id: base_link
  transform:
    translation:
      x: -0.4233140602625589
      y: 0.7327205506522197
      z: 0.0
    rotation:
      x: -0.0
      y: 0.0
      z: 0.6339582554143424
      w: -0.7733672674686998
---
transforms:
- header:
    stamp:
      sec: 14
      nanosec: 400000000
    frame_id: /odom
  child_frame_id: base_link
  transform:
    translation:
      x: -0.4195254042304794
      y: 0.7130829035375201
      z: 0.0
    rotation:
      x: -0.0
      y: 0.0
      z: 0.6398304058677753
      w: -0.7685161362828226
---
transforms:
- header:
    stamp:
      sec: 14
      nanosec: 500000000
    frame_id: /odom
  child_frame_id: base_link
  transform:
    translation:
      x: -0.41608393201441746
      y: 0.6933815479394869
      z: 0.0
    rotation:
      x: -0.0
      y: 0.0
      z: 0.6472306292858522
      w: -0.7622942427397965
---
transforms:
- header:
    stamp:
      sec: 14
      nanosec: 600000000
    frame_id: /odom
  child_frame_id: base_link
  transform:
    translation:
      x: -0.413101943374134
      y: 0.6736057740895485
      z: 0.0
    rotation:
      x: -0.0
      y: 0.0
      z: 0.6576425471362672
      w: -0.7533301269670042
---
transforms:
- header:
    stamp:
      sec: 14
      nanosec: 700000000
    frame_id: /odom
  child_frame_id: base_link
  transform:
    translation:
      x: -0.4107368304768193
      y: 0.6537471886237883
      z: 0.0
    rotation:
      x: -0.0
      y: 0.0
      z: 0.6707460637728063
      w: -0.7416870754794682
---
transforms:
- header:
    stamp:
      sec: 14
      nanosec: 800000000
    frame_id: /odom
  child_frame_id: base_link
  transform:
    translation:
      x: -0.4091437270076821
      y: 0.6338123111841942
      z: 0.0
    rotation:
      x: -0.0
      y: 0.0
      z: 0.6863949844754218
      w: -0.7272289359527614
---
transforms:
- header:
    stamp:
      sec: 14
      nanosec: 900000000
    frame_id: /odom
  child_frame_id: base_link
  transform:
    translation:
      x: -0.40845207172110465
      y: 0.6138261030616008
      z: 0.0
    rotation:
      x: -0.0
      y: 0.0
      z: 0.7031572006201838
      w: -0.7110344233692111
---
transforms:
- header:
    stamp:
      sec: 15
      nanosec: 0
    frame_id: /odom
  child_frame_id: base_link
  transform:
    translation:
      x: -0.40879598189992017
      y: 0.5938318866605754
      z: 0.0
    rotation:
      x: -0.0
      y: 0.0
      z: 0.723314285905429
      w: -0.6905189670133032
---
transforms:
- header:
    stamp:
      sec: 15
      nanosec: 100000000
    frame_id: /odom
  child_frame_id: base_link
  transform:
    translation:
      x: -0.41035763990601526
      y: 0.5738964388721159
      z: 0.0
    rotation:
      x: -0.0
      y: 0.0
      z: 0.7450888292551817
      w: -0.6669652438614344
---
transforms:
- header:
    stamp:
      sec: 15
      nanosec: 200000000
    frame_id: /odom
  child_frame_id: base_link
  transform:
    translation:
      x: -0.4149231078670926
      y: 0.5544881873430895
      z: 0.0
    rotation:
      x: -0.0
      y: 0.0
      z: 0.8248171695319189
      w: -0.5653995373586309
---
transforms:
- header:
    stamp:
      sec: 15
      nanosec: 300000000
    frame_id: /odom
  child_frame_id: base_link
  transform:
    translation:
      x: -0.42464724796782116
      y: 0.537086871125181
      z: 0.0
    rotation:
      x: -0.0
      y: 0.0
      z: 0.8959569010211986
      w: -0.4441410040882176
---
transforms:
- header:
    stamp:
      sec: 15
      nanosec: 400000000
    frame_id: /odom
  child_frame_id: base_link
  transform:
    translation:
      x: -0.4388922715581163
      y: 0.5231503776854771
      z: 0.0
    rotation:
      x: -0.0
      y: 0.0
      z: 0.951117552561234
      w: -0.3088290809006306
---
transforms:
- header:
    stamp:
      sec: 15
      nanosec: 500000000
    frame_id: /odom
  child_frame_id: base_link
  transform:
    translation:
      x: -0.45378427044196756
      y: 0.5099108453408866
      z: 0.0
    rotation:
      x: -0.0
      y: 0.0
      z: 0.9047354830757222
      w: -0.42597383213495593
---
transforms:
- header:
    stamp:
      sec: 15
      nanosec: 600000000
    frame_id: /odom
  child_frame_id: base_link
  transform:
    translation:
      x: -0.4639972245436877
      y: 0.492804776483463
      z: 0.0
    rotation:
      x: -0.0
      y: 0.0
      z: 0.8296261716661839
      w: -0.5583192771940725
---
transforms:
- header:
    stamp:
      sec: 15
      nanosec: 700000000
    frame_id: /odom
  child_frame_id: base_link
  transform:
    translation:
      x: -0.4698826771257278
      y: 0.47371297232124737
      z: 0.0
    rotation:
      x: -0.0
      y: 0.0
      z: 0.7800920338839427
      w: -0.6256647813892147
---
transforms:
- header:
    stamp:
      sec: 15
      nanosec: 800000000
    frame_id: /odom
  child_frame_id: base_link
  transform:
    translation:
      x: -0.472591087604232
      y: 0.45392034782733903
      z: 0.0
    rotation:
      x: -0.0
      y: 0.0
      z: 0.7256101475965705
      w: -0.6881060337657875
---
transforms:
- header:
    stamp:
      sec: 15
      nanosec: 900000000
    frame_id: /odom
  child_frame_id: base_link
  transform:
    translation:
      x: -0.4719464564827396
      y: 0.43395519817520284
      z: 0.0
    rotation:
      x: -0.0
      y: 0.0
      z: 0.6641980610038226
      w: -0.7475566438463125
---
transforms:
- header:
    stamp:
      sec: 16
      nanosec: 0
    frame_id: /odom
  child_frame_id: base_link
  transform:
    translation:
      x: -0.46777734671681837
      y: 0.41442403555837476
      z: 0.0
    rotation:
      x: -0.0
      y: 0.0
      z: 0.5921483636339996
      w: -0.8058289616572345
---
transforms:
- header:
    stamp:
      sec: 16
      nanosec: 100000000
    frame_id: /odom
  child_frame_id: base_link
  transform:
    translation:
      x: -0.4600575696115725
      y: 0.396005747834492
      z: 0.0
    rotation:
      x: -0.0
      y: 0.0
      z: 0.5141398469069162
      w: -0.8577063703987122
---
transforms:
- header:
    stamp:
      sec: 16
      nanosec: 200000000
    frame_id: /odom
  child_frame_id: base_link
  transform:
    translation:
      x: -0.44889638822084793
      y: 0.37945273284116793
      z: 0.0
    rotation:
      x: -0.0
      y: 0.0
      z: 0.42322503115280985
      w: -0.9060245984550879
---
transforms:
- header:
    stamp:
      sec: 16
      nanosec: 300000000
    frame_id: /odom
  child_frame_id: base_link
  transform:
    translation:
      x: -0.43435339051712357
      y: 0.3657934239153764
      z: 0.0
    rotation:
      x: -0.0
      y: 0.0
      z: 0.3116294801685791
      w: -0.9502036976826923
---
transforms:
- header:
    stamp:
      sec: 16
      nanosec: 400000000
    frame_id: /odom
  child_frame_id: base_link
  transform:
    translation:
      x: -0.4168862930172779
      y: 0.356175866921222
      z: 0.0
    rotation:
      x: -0.0
      y: 0.0
      z: 0.18296226912619157
      w: -0.9831199357536166
---
transforms:
- header:
    stamp:
      sec: 16
      nanosec: 500000000
    frame_id: /odom
  child_frame_id: base_link
  transform:
    translation:
      x: -0.3974633200559841
      y: 0.3517184575805112
      z: 0.0
    rotation:
      x: -0.0
      y: 0.0
      z: 0.03789136284666334
      w: -0.9992818644514783
---
transforms:
- header:
    stamp:
      sec: 16
      nanosec: 600000000
    frame_id: /odom
  child_frame_id: base_link
  transform:
    translation:
      x: -0.3779774973770184
      y: 0.34752122288655357
      z: 0.0
    rotation:
      x: -0.0
      y: 0.0
      z: 0.17624341385097392
      w: -0.9843466153109658
---
transforms:
- header:
    stamp:
      sec: 16
      nanosec: 700000000
    frame_id: /odom
  child_frame_id: base_link
  transform:
    translation:
      x: -0.3603036580166365
      y: 0.3382757879368114
      z: 0.0
    rotation:
      x: -0.0
      y: 0.0
      z: 0.29996062116229544
      w: -0.9539515845953241
---
transforms:
- header:
    stamp:
      sec: 16
      nanosec: 800000000
    frame_id: /odom
  child_frame_id: base_link
  transform:
    translation:
      x: -0.3454973127874692
      y: 0.32490799269196985
      z: 0.0
    rotation:
      x: -0.0
      y: 0.0
      z: 0.4165192124186981
      w: -0.9091269139598209
---
transforms:
- header:
    stamp:
      sec: 16
      nanosec: 900000000
    frame_id: /odom
  child_frame_id: base_link
  transform:
    translation:
      x: -0.33445729799087387
      y: 0.30829370268632234
      z: 0.0
    rotation:
      x: -0.0
      y: 0.0
      z: 0.526707174794844
      w: -0.8500467940176197
---
transforms:
- header:
    stamp:
      sec: 17
      nanosec: 0
    frame_id: /odom
  child_frame_id: base_link
  transform:
    translation:
      x: -0.32795344111904745
      y: 0.2894402522039849
      z: 0.0
    rotation:
      x: -0.0
      y: 0.0
      z: 0.6321580034260481
      w: -0.7748395051263149
---
transforms:
- header:
    stamp:
      sec: 17
      nanosec: 100000000
    frame_id: /odom
  child_frame_id: base_link
  transform:
    translation:
      x: -0.3266194705678795
      y: 0.26954632348801216
      z: 0.0
    rotation:
      x: -0.0
      y: 0.0
      z: 0.7310301977006848
      w: -0.6823451106659282
---
transforms:
- header:
    stamp:
      sec: 17
      nanosec: 200000000
    frame_id: /odom
  child_frame_id: base_link
  transform:
    translation:
      x: -0.3308266404217098
      y: 0.25006524810843306
      z: 0.0
    rotation:
      x: -0.0
      y: 0.0
      z: 0.8215768621983867
      w: -0.5700977631075684
---
transforms:
- header:
    stamp:
      sec: 17
      nanosec: 300000000
    frame_id: /odom
  child_frame_id: base_link
  transform:
    translation:
      x: -0.3372071233499857
      y: 0.2311624852291067
      z: 0.0
    rotation:
      x: -0.0
      y: 0.0
      z: 0.7702864977709521
      w: -0.6376979781618889
---
transforms:
- header:
    stamp:
      sec: 17
      nanosec: 400000000
    frame_id: /odom
  child_frame_id: base_link
  transform:
    translation:
      x: -0.3379679337728565
      y: 0.2112492872428466
      z: 0.0
    rotation:
      x: -0.0
      y: 0.0
      z: 0.6678352460816237
      w: -0.7443091320755759
---
transforms:
- header:
    stamp:
      sec: 17
      nanosec: 500000000
    frame_id: /odom
  child_frame_id: base_link
  transform:
    translation:
      x: -0.3329022297288941
      y: 0.19197901605303874
      z: 0.0
    rotation:
      x: -0.0
      y: 0.0
      z: 0.5494104483028394
      w: -0.8355526071383376
---
transforms:
- header:
    stamp:
      sec: 17
      nanosec: 600000000
    frame_id: /odom
  child_frame_id: base_link
  transform:
    translation:
      x: -0.32231167215512174
      y: 0.17510708842982925
      z: 0.0
    rotation:
      x: -0.0
      y: 0.0
      z: 0.41454433656931855
      w: -0.9100291165772134
---
transforms:
- header:
    stamp:
      sec: 17
      nanosec: 700000000
    frame_id: /odom
  child_frame_id: base_link
  transform:
    translation:
      x: -0.30992725834810236
      y: 0.15947257667672377
      z: 0.0
    rotation:
      x: -0.0
      y: 0.0
      z: 0.49759473798371195
      w: -0.8674096360606799
---
transforms:
- header:
    stamp:
      sec: 17
      nanosec: 800000000
    frame_id: /odom
  child_frame_id: base_link
  transform:
    translation:
      x: -0.3024608615113087
      y: 0.1409919991568001
      z: 0.0
    rotation:
      x: -0.0
      y: 0.0
      z: 0.6168541700492438
      w: -0.7870774630828015
---
transforms:
- header:
    stamp:
      sec: 17
      nanosec: 900000000
    frame_id: /odom
  child_frame_id: base_link
  transform:
    translation:
      x: -0.300514764517962
      y: 0.12115625353576906
      z: 0.0
    rotation:
      x: -0.0
      y: 0.0
      z: 0.7232787956026825
      w: -0.6905561409701119
---
transforms:
- header:
    stamp:
      sec: 18
      nanosec: 0
    frame_id: /odom
  child_frame_id: base_link
  transform:
    translation:
      x: -0.30430432760137455
      y: 0.10159027503421081
      z: 0.0
    rotation:
      x: -0.0
      y: 0.0
      z: 0.8156314702289257
      w: -0.5785717801381269
---
transforms:
- header:
    stamp:
      sec: 18
      nanosec: 100000000
    frame_id: /odom
  child_frame_id: base_link
  transform:
    translation:
      x: -0.31356287968007013
      y: 0.08394313175914846
      z: 0.0
    rotation:
      x: -0.0
      y: 0.0
      z: 0.8913520481561099
      w: -0.4533117318666128
---
transforms:
- header:
    stamp:
      sec: 18
      nanosec: 200000000
    frame_id: /odom
  child_frame_id: base_link
  transform:
    translation:
      x: -0.32757322653522847
      y: 0.06977734060414664
      z: 0.0
    rotation:
      x: -0.0
      y: 0.0
      z: 0.9493278954832849
      w: -0.31428736350238057
---
transforms:
- header:
    stamp:
      sec: 18
      nanosec: 300000000
    frame_id: /odom
  child_frame_id: base_link
  transform:
    translation:
      x: -0.34263153567804205
      y: 0.05671576223253503
      z: 0.0
    rotation:
      x: -0.0
      y: 0.0
      z: 0.9082391693533364
      w: -0.4184514443186468
---
transforms:
- header:
    stamp:
      sec: 18
      nanosec: 400000000
    frame_id: /odom
  child_frame_id: base_link
  transform:
    translation:
      x: -0.35312400912746184
      y: 0.039779628296455975
      z: 0.0
    rotation:
      x: -0.0
      y: 0.0
      z: 0.8342169466163486
      w: -0.5514363843437393
---
transforms:
- header:
    stamp:
      sec: 18
      nanosec: 500000000
    frame_id: /odom
  child_frame_id: base_link
  transform:
    translation:
      x: -0.3580211608595866
      y: 0.020470631566044395
      z: 0.0
    rotation:
      x: -0.0
      y: 0.0
      z: 0.7394260350138468
      w: -0.6732378025212943
---
transforms:
- header:
    stamp:
      sec: 18
      nanosec: 600000000
    frame_id: /odom
  child_frame_id: base_link
  transform:
    translation:
      x: -0.3604714826278503
      y: 0.000672350292618388
      z: 0.0
    rotation:
      x: -0.0
      y: 0.0
      z: 0.7936525803739461
      w: -0.608371253155322
---
transforms:
- header:
    stamp:
      sec: 18
      nanosec: 700000000
    frame_id: /odom
  child_frame_id: base_link
  transform:
    translation:
      x: -0.36851362700172
      y: -0.017554776984781643
      z: 0.0
    rotation:
      x: -0.0
      y: 0.0
      z: 0.8769440889929021
